<markers>
<marker lat="47.5572" lng="-122.3380" station="ACES" channel="ENE" network="UW" type="SM"/>
<marker lat="47.6524" lng="-122.0394" station="ALCT" channel="ENE" network="UW" type="SM"/>
<marker lat="47.5680" lng="-122.4204" station="ALKI" channel="EHZ" network="UW" type="SP"/>
<marker lat="46.1095" lng="-123.0378" station="ALST" channel="ENE" network="UW" type="SM"/>
<marker lat="43.9912" lng="-123.0183" station="ALVY" channel="ENE" network="UW" type="SM"/>
<marker lat="46.1461" lng="-121.6057" station="ASR" channel="EHZ" network="UW" type="SP"/>
<marker lat="48.2359" lng="-122.0633" station="ATES" channel="EHZ" network="UW" type="SP"/>
<marker lat="45.7367" lng="-121.6870" station="AUG" channel="EHZ" network="UW" type="SP"/>
<marker lat="48.0450" lng="-123.1397" station="B001" channel="EH1" network="PB" type="SP"/>
<marker lat="48.2085" lng="-124.4333" station="B004" channel="EH1" network="PB" type="SP"/>
<marker lat="48.0684" lng="-123.4998" station="B005" channel="EH1" network="PB" type="SP"/>
<marker lat="48.0550" lng="-123.4918" station="B006" channel="EH1" network="PB" type="SP"/>
<marker lat="48.0645" lng="-123.5037" station="B007" channel="EH1" network="PB" type="SP"/>
<marker lat="48.6470" lng="-123.4443" station="B011" channel="EH1" network="PB" type="SP"/>
<marker lat="48.9275" lng="-125.5342" station="B012" channel="EH1" network="PB" type="SP"/>
<marker lat="47.8186" lng="-122.9033" station="B013" channel="EH1" network="PB" type="SP"/>
<marker lat="47.5157" lng="-123.8126" station="B014" channel="EH1" network="PB" type="SP"/>
<marker lat="47.0002" lng="-123.5554" station="B017" channel="EH1" network="PB" type="SP"/>
<marker lat="46.9890" lng="-123.0116" station="B018" channel="EH1" network="PB" type="SP"/>
<marker lat="46.6503" lng="-123.6474" station="B019" channel="EH1" network="PB" type="SP"/>
<marker lat="46.3925" lng="-123.8431" station="B020" channel="EH1" network="PB" type="SP"/>
<marker lat="45.9592" lng="-123.9296" station="B022" channel="EH1" network="PB" type="SP"/>
<marker lat="46.1093" lng="-123.0790" station="B023" channel="EH1" network="PB" type="SP"/>
<marker lat="45.6429" lng="-123.8571" station="B024" channel="EH1" network="PB" type="SP"/>
<marker lat="45.3110" lng="-123.8156" station="B026" channel="EH1" network="PB" type="SP"/>
<marker lat="44.4885" lng="-122.9734" station="B028" channel="EH1" network="PB" type="SP"/>
<marker lat="43.9709" lng="-122.7684" station="B030" channel="EH1" network="PB" type="SP"/>
<marker lat="43.6644" lng="-123.3942" station="B031" channel="EH1" network="PB" type="SP"/>
<marker lat="43.6703" lng="-123.3866" station="B032" channel="EH1" network="PB" type="SP"/>
<marker lat="43.2942" lng="-123.1254" station="B033" channel="EH1" network="PB" type="SP"/>
<marker lat="42.5109" lng="-123.3828" station="B035" channel="EH1" network="PB" type="SP"/>
<marker lat="42.4981" lng="-123.3766" station="B036" channel="EH1" network="PB" type="SP"/>
<marker lat="41.8298" lng="-122.4168" station="B040" channel="EH1" network="PB" type="SP"/>
<marker lat="46.3016" lng="-122.2586" station="B201" channel="EH1" network="PB" type="SP"/>
<marker lat="46.2371" lng="-122.1278" station="B202" channel="EH1" network="PB" type="SP"/>
<marker lat="46.1739" lng="-122.3301" station="B203" channel="EH1" network="PB" type="SP"/>
<marker lat="46.1370" lng="-122.1685" station="B204" channel="EH1" network="PB" type="SP"/>
<marker lat="48.8179" lng="-124.1300" station="B926" channel="EH1" network="PB" type="SP"/>
<marker lat="49.2234" lng="-124.8103" station="B927" channel="EH1" network="PB" type="SP"/>
<marker lat="48.8425" lng="-125.1310" station="B928" channel="EH1" network="PB" type="SP"/>
<marker lat="46.9778" lng="-122.2171" station="B941" channel="EH1" network="PB" type="SP"/>
<marker lat="47.8173" lng="-122.9200" station="B943" channel="EH1" network="PB" type="SP"/>
<marker lat="47.6010" lng="-122.5461" station="BABE" channel="ENE" network="UW" type="SM"/>
<marker lat="42.8874" lng="-122.6733" station="BBO" channel="EHZ" network="UW" type="SP"/>
<marker lat="46.5246" lng="-119.7176" station="BEN" channel="EHZ" network="HW" type="SP"/>
<marker lat="46.5111" lng="-119.7185" station="BEND" channel="EHZ" network="UW" type="SP"/>
<marker lat="47.9163" lng="-122.2708" station="BEVT" channel="ENE" network="UW" type="SM"/>
<marker lat="47.8413" lng="-122.0251" station="BHW" channel="EHZ" network="UW" type="SP"/>
<marker lat="44.3003" lng="-121.7041" station="BKC" channel="EHZ" network="UW" type="SP"/>
<marker lat="48.0043" lng="-122.9823" station="BLN" channel="EHZ" network="UW" type="SP"/>
<marker lat="44.6909" lng="-122.1774" station="BLOW" channel="BHE" network="UW" type="BB"/>
<marker lat="45.9173" lng="-120.1726" station="BLT" channel="EHZ" network="UW" type="SP"/>
<marker lat="44.8523" lng="-117.3146" station="BMO" channel="BHE" network="US" type="BB"/>
<marker lat="46.4763" lng="-123.2287" station="BOW" channel="EHZ" network="UW" type="SP"/>
<marker lat="44.6420" lng="-121.6846" station="BPO" channel="EHZ" network="UW" type="SP"/>
<marker lat="45.9718" lng="-117.2297" station="BRAN" channel="BHE" network="UW" type="BB"/>
<marker lat="47.7455" lng="-122.2883" station="BRKS" channel="ENE" network="UW" type="SM"/>
<marker lat="44.2619" lng="-122.4465" station="BRO" channel="EHZ" network="UW" type="SP"/>
<marker lat="46.4942" lng="-119.9935" station="BRV" channel="EHZ" network="UW" type="SP"/>
<marker lat="47.5115" lng="-122.3043" station="BSFP" channel="ENE" network="UW" type="SM"/>
<marker lat="45.4417" lng="-122.1574" station="BULL" channel="ENE" network="UW" type="SM"/>
<marker lat="42.2714" lng="-122.2485" station="BUO" channel="EHZ" network="UW" type="SP"/>
<marker lat="43.5687" lng="-119.1341" station="BURN" channel="EHZ" network="UW" type="SP"/>
<marker lat="46.8056" lng="-119.8750" station="BVW" channel="EHZ" network="UW" type="SP"/>
<marker lat="47.7954" lng="-120.0432" station="CBS" channel="EHZ" network="UW" type="SP"/>
<marker lat="46.5530" lng="-119.8552" station="CCRK" channel="BHE" network="HW" type="BB"/>
<marker lat="46.1132" lng="-122.0436" station="CDF" channel="EHZ" network="UW" type="SP"/>
<marker lat="47.4193" lng="-121.7657" station="CDMR" channel="ENE" network="UW" type="SM"/>
<marker lat="48.4161" lng="-122.1173" station="CMW" channel="EHZ" network="UW" type="SP"/>
<marker lat="48.5917" lng="-117.8784" station="COLT" channel="ENE" network="UW" type="SM"/>
<marker lat="44.5873" lng="-123.3119" station="COR" channel="BHZ" network="IU" type="BB"/>
<marker lat="46.9824" lng="-123.1301" station="CPW" channel="EHZ" network="UW" type="SP"/>
<marker lat="46.8207" lng="-119.3948" station="CRF" channel="EHZ" network="UW" type="SP"/>
<marker lat="47.6457" lng="-118.2259" station="DAVN" channel="BHE" network="UW" type="BB"/>
<marker lat="43.1188" lng="-123.2343" station="DBO" channel="BHE" network="UO" type="BB"/>
<marker lat="46.4917" lng="-119.0665" station="DDRF" channel="BHE" network="HW" type="BB"/>
<marker lat="47.8654" lng="-118.2097" station="DPW" channel="EHZ" network="UW" type="SP"/>
<marker lat="47.9851" lng="-119.7728" station="DY2" channel="EHZ" network="UW" type="SP"/>
<marker lat="47.7353" lng="-122.0529" station="EARN" channel="ENE" network="UW" type="SM"/>
<marker lat="46.1914" lng="-122.1435" station="EDM" channel="EHZ" network="UW" type="SP"/>
<marker lat="47.0709" lng="-122.9761" station="EGRN" channel="ENE" network="UW" type="SM"/>
<marker lat="46.3074" lng="-122.3481" station="ELK" channel="EHZ" network="UW" type="SP"/>
<marker lat="46.9059" lng="-120.5768" station="ELL" channel="EHZ" network="UW" type="SP"/>
<marker lat="47.4853" lng="-121.8679" station="ELW" channel="ENE" network="UW" type="SM"/>
<marker lat="47.3581" lng="-119.5954" station="EPH" channel="EHZ" network="UW" type="SP"/>
<marker lat="48.4572" lng="-122.6307" station="ERW" channel="ENE" network="UW" type="SM"/>
<marker lat="46.5708" lng="-118.9360" station="ET3" channel="EHZ" network="UW" type="SP"/>
<marker lat="47.6044" lng="-120.3236" station="ETW" channel="EHZ" network="UW" type="SP"/>
<marker lat="44.0261" lng="-123.0606" station="EUO" channel="BHE" network="UO" type="BB"/>
<marker lat="48.0002" lng="-122.2151" station="EVCC" channel="ENE" network="UW" type="SM"/>
<marker lat="47.8542" lng="-122.1536" station="EVGW" channel="ENE" network="UW" type="SM"/>
<marker lat="45.3234" lng="-123.0536" station="EYES" channel="ENE" network="UW" type="SM"/>
<marker lat="46.9452" lng="-119.4963" station="FHE" channel="EHE" network="UW" type="SP"/>
<marker lat="47.7135" lng="-122.2383" station="FINN" channel="ENE" network="UW" type="SM"/>
<marker lat="45.9266" lng="-123.5555" station="FISH" channel="BHE" network="UW" type="BB"/>
<marker lat="46.2060" lng="-122.3466" station="FL2" channel="EHZ" network="UW" type="SP"/>
<marker lat="46.9438" lng="-121.6700" station="FMW" channel="EHZ" network="UW" type="SP"/>
<marker lat="44.2047" lng="-122.1037" station="FRIS" channel="EHZ" network="UO" type="SP"/>
<marker lat="45.2097" lng="-123.2622" station="G03D" channel="BHE" network="TA" type="BB"/>
<marker lat="45.2502" lng="-121.3247" station="G05D" channel="BHE" network="TA" type="BB"/>
<marker lat="46.6030" lng="-119.6351" station="GBB" channel="EHE" network="HW" type="SP"/>
<marker lat="46.5978" lng="-119.4591" station="GBL" channel="EHZ" network="UW" type="SP"/>
<marker lat="47.0486" lng="-122.2791" station="GHW" channel="EHZ" network="UW" type="SP"/>
<marker lat="45.9548" lng="-120.8326" station="GL2" channel="EHZ" network="UW" type="SP"/>
<marker lat="46.5551" lng="-121.6109" station="GLK" channel="EHZ" network="UW" type="SP"/>
<marker lat="44.4461" lng="-120.9584" station="GMO" channel="EHZ" network="UW" type="SP"/>
<marker lat="47.5435" lng="-122.7846" station="GMW" channel="EHZ" network="UW" type="SP"/>
<marker lat="47.5616" lng="-122.8170" station="GNW" channel="BHE" network="UW" type="BB"/>
<marker lat="48.1235" lng="-121.1439" station="GPW" channel="EHZ" network="UW" type="SP"/>
<marker lat="47.2003" lng="-121.7984" station="GSM" channel="EHZ" network="UW" type="SP"/>
<marker lat="45.9254" lng="-121.5880" station="GUL" channel="EHZ" network="UW" type="SP"/>
<marker lat="46.3871" lng="-119.4175" station="H2O" channel="EHZ" network="HW" type="SP"/>
<marker lat="42.0660" lng="-121.9660" station="HAM" channel="EHZ" network="UW" type="SP"/>
<marker lat="47.5899" lng="-122.3539" station="HART" channel="ENE" network="UW" type="SM"/>
<marker lat="46.3974" lng="-119.5345" station="HAWA" channel="BHE" network="US" type="BB"/>
<marker lat="43.8414" lng="-122.3302" station="HBO" channel="EHZ" network="UW" type="SP"/>
<marker lat="47.6455" lng="-123.0648" station="HDW" channel="EH2" network="UW" type="SP"/>
<marker lat="45.2138" lng="-123.7475" station="HEBO" channel="BHE" network="UW" type="BB"/>
<marker lat="47.3830" lng="-122.3036" station="HICC" channel="ENE" network="UW" type="SM"/>
<marker lat="43.5695" lng="-114.4211" station="HLID" channel="BHE" network="US" type="BB"/>
<marker lat="42.2445" lng="-121.7072" station="HOG" channel="EHZ" network="UW" type="SP"/>
<marker lat="47.5567" lng="-122.3758" station="HOLY" channel="ENE" network="UW" type="SM"/>
<marker lat="45.3259" lng="-121.6500" station="HOOD" channel="BHE" network="UW" type="BB"/>
<marker lat="43.5286" lng="-123.0999" station="HSO" channel="EHZ" network="UW" type="SP"/>
<marker lat="46.1748" lng="-122.1793" station="HSR" channel="EHZ" network="UW" type="SP"/>
<marker lat="47.8113" lng="-121.7725" station="HTW" channel="EHZ" network="UW" type="SP"/>
<marker lat="45.6232" lng="-122.6561" station="HUBA" channel="ENE" network="UW" type="SM"/>
<marker lat="44.1165" lng="-121.8490" station="HUO" channel="EHE" network="UO" type="SP"/>
<marker lat="43.6946" lng="-123.3515" station="I03D" channel="BHE" network="TA" type="BB"/>
<marker lat="43.7853" lng="-122.4014" station="I04A" channel="BHE" network="TA" type="BB"/>
<marker lat="44.3478" lng="-121.3488" station="I05D" channel="BHE" network="TA" type="BB"/>
<marker lat="44.0023" lng="-122.2617" station="IRO" channel="EHZ" network="UO" type="SP"/>
<marker lat="44.0136" lng="-122.2566" station="IRON" channel="BHE" network="UW" type="BB"/>
<marker lat="44.0876" lng="-119.5027" station="IZEE" channel="BHE" network="UW" type="BB"/>
<marker lat="43.2377" lng="-122.1155" station="J04D" channel="BHE" network="TA" type="BB"/>
<marker lat="43.2846" lng="-121.2358" station="J05D" channel="BHE" network="TA" type="BB"/>
<marker lat="45.4630" lng="-119.8391" station="JBO" channel="EHZ" network="UW" type="SP"/>
<marker lat="48.1931" lng="-121.9215" station="JCW" channel="EHZ" network="UW" type="SP"/>
<marker lat="42.9856" lng="-117.0556" station="JORV" channel="EHZ" network="UW" type="SP"/>
<marker lat="46.1509" lng="-122.1480" station="JUN" channel="EHZ" network="UW" type="SP"/>
<marker lat="42.6204" lng="-121.7588" station="K04D" channel="BHE" network="TA" type="BB"/>
<marker lat="47.5495" lng="-122.3263" station="KCAM" channel="ENE" network="UW" type="SM"/>
<marker lat="47.6047" lng="-122.3410" station="KDK" channel="ENE" network="UW" type="SM"/>
<marker lat="45.5429" lng="-122.9018" station="KEEL" channel="ENE" network="UW" type="SM"/>
<marker lat="45.2426" lng="-120.6392" station="KENT" channel="BHE" network="UW" type="BB"/>
<marker lat="42.2544" lng="-121.7777" station="KFAL" channel="ENE" network="UW" type="SM"/>
<marker lat="47.5727" lng="-122.2963" station="KIMB" channel="ENE" network="UW" type="SM"/>
<marker lat="47.4941" lng="-122.7780" station="KIMR" channel="ENE" network="UW" type="SM"/>
<marker lat="47.7531" lng="-122.6380" station="KINR" channel="ENE" network="UW" type="SM"/>
<marker lat="46.6191" lng="-120.3605" station="KITP" channel="ENE" network="UW" type="SM"/>
<marker lat="45.6315" lng="-123.4969" station="KMO" channel="EHZ" network="UW" type="SP"/>
<marker lat="47.3724" lng="-122.2430" station="KNEL" channel="ENE" network="UW" type="SM"/>
<marker lat="46.4725" lng="-122.1911" station="KOS" channel="EHZ" network="UW" type="SP"/>
<marker lat="42.2603" lng="-122.0620" station="LAB" channel="EHE" network="UW" type="SP"/>
<marker lat="44.0451" lng="-123.2336" station="LANE" channel="ENE" network="UW" type="SM"/>
<marker lat="47.6545" lng="-122.3927" station="LAWT" channel="ENE" network="UW" type="SM"/>
<marker lat="45.1974" lng="-122.4738" station="LCCR" channel="BHE" network="UW" type="BB"/>
<marker lat="46.6617" lng="-122.6970" station="LCW" channel="EHZ" network="UW" type="SP"/>
<marker lat="46.5436" lng="-123.5631" station="LEBA" channel="BHE" network="UW" type="BB"/>
<marker lat="47.7588" lng="-122.1109" station="LEOT" channel="ENE" network="UW" type="SM"/>
<marker lat="42.2152" lng="-120.3661" station="LKVW" channel="EHZ" network="UW" type="SP"/>
<marker lat="46.6705" lng="-122.2960" station="LMW" channel="EHZ" network="UW" type="SP"/>
<marker lat="45.8762" lng="-118.2886" station="LNO" channel="EHZ" network="UW" type="SP"/>
<marker lat="46.7558" lng="-121.8054" station="LO2" channel="EHZ" network="UW" type="SP"/>
<marker lat="46.7231" lng="-119.4276" station="LOC" channel="EHZ" network="UW" type="SP"/>
<marker lat="46.7497" lng="-121.8204" station="LON" channel="BHE" network="UW" type="BB"/>
<marker lat="48.0529" lng="-123.5060" station="LRIV" channel="BHE" network="UW" type="BB"/>
<marker lat="46.4561" lng="-119.4104" station="LTH" channel="BHE" network="LI" type="BB"/>
<marker lat="47.2600" lng="-120.6566" station="LTY" channel="BHE" network="UW" type="BB"/>
<marker lat="46.0684" lng="-122.3994" station="LVP" channel="EHZ" network="UW" type="SP"/>
<marker lat="47.8353" lng="-122.2870" station="LYNC" channel="ENE" network="UW" type="SM"/>
<marker lat="41.3933" lng="-122.8440" station="M02C" channel="BHE" network="TA" type="BB"/>
<marker lat="41.7829" lng="-121.8353" station="M04C" channel="BHE" network="TA" type="BB"/>
<marker lat="47.6549" lng="-122.1206" station="MARY" channel="ENE" network="UW" type="SM"/>
<marker lat="45.1676" lng="-121.0744" station="MAUP" channel="ENE" network="UW" type="SM"/>
<marker lat="48.9206" lng="-122.1382" station="MBKE" channel="ENE" network="UW" type="SM"/>
<marker lat="47.9022" lng="-121.8939" station="MBPA" channel="ENE" network="UW" type="SM"/>
<marker lat="48.7856" lng="-121.9104" station="MBW" channel="EHZ" network="UW" type="SP"/>
<marker lat="48.6836" lng="-122.8255" station="MCW" channel="EHZ" network="UW" type="SP"/>
<marker lat="46.6121" lng="-119.7706" station="MDW" channel="EHZ" network="UW" type="SP"/>
<marker lat="47.6217" lng="-122.2980" station="MEAN" channel="ENE" network="UW" type="SM"/>
<marker lat="46.2619" lng="-123.8699" station="MEGW" channel="BHE" network="UW" type="BB"/>
<marker lat="47.2002" lng="-122.6396" station="MEW" channel="EHZ" network="UW" type="SP"/>
<marker lat="46.5503" lng="-119.3547" station="MJ2" channel="EHZ" network="UW" type="SP"/>
<marker lat="47.5646" lng="-122.5428" station="MNWA" channel="ENE" network="UW" type="SM"/>
<marker lat="44.8455" lng="-123.2475" station="MONO" channel="ENE" network="UW" type="SM"/>
<marker lat="44.0419" lng="-121.6728" station="MOON" channel="EHZ" network="UW" type="SP"/>
<marker lat="46.5758" lng="-120.3059" station="MOX" channel="EHZ" network="UW" type="SP"/>
<marker lat="47.4599" lng="-122.1929" station="MPL" channel="ENE" network="UW" type="SM"/>
<marker lat="44.5097" lng="-123.5509" station="MPO" channel="EHZ" network="UW" type="SP"/>
<marker lat="48.5175" lng="-121.4884" station="MRBL" channel="BHE" network="UW" type="BB"/>
<marker lat="44.8005" lng="-122.6897" station="MRIN" channel="ENE" network="UW" type="SM"/>
<marker lat="46.0297" lng="-122.2052" station="MTM" channel="EHZ" network="UW" type="SP"/>
<marker lat="46.7380" lng="-120.8303" station="NAC" channel="EHZ" network="UW" type="SP"/>
<marker lat="43.7052" lng="-121.1409" station="NCO" channel="EHZ" network="UW" type="SP"/>
<marker lat="46.1906" lng="-122.1850" station="NED" channel="EHZ" network="CC" type="SP"/>
<marker lat="48.0691" lng="-120.3434" station="NEL" channel="EHZ" network="UW" type="SP"/>
<marker lat="48.2706" lng="-117.1216" station="NEW" channel="BHE" network="US" type="BB"/>
<marker lat="48.2646" lng="-117.1292" station="NEWO" channel="ENE" network="UW" type="SM"/>
<marker lat="47.7406" lng="-122.2239" station="NIHS" channel="ENE" network="UW" type="SM"/>
<marker lat="46.0986" lng="-123.4458" station="NLO" channel="EHZ" network="UW" type="SP"/>
<marker lat="47.3838" lng="-123.8735" station="NLWA" channel="BHE" network="US" type="BB"/>
<marker lat="47.6768" lng="-122.2541" station="NOWS" channel="ENE" network="UW" type="SM"/>
<marker lat="48.0411" lng="-124.0709" station="OBC" channel="EHZ" network="UW" type="SP"/>
<marker lat="46.8910" lng="-121.8116" station="OBSR" channel="BHE" network="CC" type="BB"/>
<marker lat="48.2900" lng="-124.6276" station="OCP" channel="EHZ" network="UW" type="SP"/>
<marker lat="47.3873" lng="-118.7199" station="OD2" channel="EHZ" network="UW" type="SP"/>
<marker lat="47.9426" lng="-124.4035" station="OFR" channel="BHE" network="UW" type="BB"/>
<marker lat="47.3396" lng="-123.1577" station="OHC" channel="ENE" network="UW" type="SM"/>
<marker lat="48.3607" lng="-119.3414" station="OMAK" channel="BHE" network="UW" type="BB"/>
<marker lat="46.8842" lng="-123.7920" station="ON2" channel="EHZ" network="UW" type="SP"/>
<marker lat="47.7319" lng="-124.1912" station="OOW" channel="EHZ" network="UW" type="SP"/>
<marker lat="47.8148" lng="-123.7039" station="OSD" channel="EHZ" network="UW" type="SP"/>
<marker lat="47.4964" lng="-123.9578" station="OSR" channel="EHZ" network="UW" type="SP"/>
<marker lat="46.6648" lng="-119.2251" station="OT3" channel="EHZ" network="UW" type="SP"/>
<marker lat="48.0900" lng="-124.3476" station="OTR" channel="EHZ" network="UW" type="SP"/>
<marker lat="49.0008" lng="-122.0897" station="PASS" channel="BHE" network="UW" type="BB"/>
<marker lat="45.8799" lng="-119.7504" station="PAT2" channel="EHZ" network="UW" type="SP"/>
<marker lat="47.1978" lng="-122.3053" station="PAYL" channel="ENE" network="UW" type="SM"/>
<marker lat="47.1137" lng="-122.2830" station="PCEP" channel="ENE" network="UW" type="SM"/>
<marker lat="46.9823" lng="-122.4388" station="PCFR" channel="EHZ" network="UW" type="SP"/>
<marker lat="46.8960" lng="-122.2948" station="PCMD" channel="EHZ" network="UW" type="SP"/>
<marker lat="45.3222" lng="-122.7853" station="PERL" channel="ENE" network="UW" type="SM"/>
<marker lat="45.4710" lng="-122.4535" station="PGO" channel="EHZ" network="UW" type="SP"/>
<marker lat="45.9015" lng="-119.9246" station="PHIN" channel="BHE" network="HW" type="BB"/>
<marker lat="47.5746" lng="-122.3390" station="PIER" channel="ENE" network="UW" type="SM"/>
<marker lat="43.8151" lng="-120.8690" station="PIN" channel="BHE" network="UO" type="BB"/>
<marker lat="47.5795" lng="-122.0380" station="PNLK" channel="ENE" network="UW" type="SM"/>
<marker lat="46.8278" lng="-122.0165" station="PRLK" channel="BHE" network="CC" type="BB"/>
<marker lat="46.2168" lng="-119.6953" station="PRO" channel="EHZ" network="UW" type="SP"/>
<marker lat="47.6301" lng="-122.3503" station="QAW" channel="ENE" network="UW" type="SM"/>
<marker lat="47.3281" lng="-121.9409" station="RAW" channel="ENE" network="UW" type="SM"/>
<marker lat="46.8434" lng="-121.7253" station="RCM" channel="EHZ" network="UW" type="SP"/>
<marker lat="46.8611" lng="-121.7265" station="RCS" channel="EHZ" network="UW" type="SP"/>
<marker lat="46.2909" lng="-119.4424" station="RED" channel="EHZ" network="HW" type="SP"/>
<marker lat="46.8102" lng="-121.8346" station="RER" channel="EHZ" network="UW" type="SP"/>
<marker lat="47.5446" lng="-122.1781" station="RHAZ" channel="ENE" network="UW" type="SM"/>
<marker lat="47.4505" lng="-121.8130" station="RMW" channel="EHZ" network="UW" type="SP"/>
<marker lat="43.9157" lng="-123.7302" station="RNO" channel="EHZ" network="UW" type="SP"/>
<marker lat="45.6699" lng="-122.6495" station="ROSS" channel="ENE" network="UW" type="SM"/>
<marker lat="48.4423" lng="-121.5216" station="RPW" channel="EHZ" network="UW" type="SP"/>
<marker lat="46.7963" lng="-123.0491" station="RRHS" channel="EHZ" network="UW" type="SP"/>
<marker lat="46.4035" lng="-119.5830" station="RSW" channel="EHZ" network="UW" type="SP"/>
<marker lat="46.9443" lng="-121.9746" station="RVC" channel="EHZ" network="UW" type="SP"/>
<marker lat="46.1537" lng="-122.7386" station="RVW" channel="EHZ" network="UW" type="SP"/>
<marker lat="47.7047" lng="-119.4017" station="SAW" channel="EHZ" network="UW" type="SP"/>
<marker lat="48.7661" lng="-122.4181" station="SBES" channel="EHZ" network="UW" type="SP"/>
<marker lat="47.7553" lng="-122.3584" station="SCC" channel="ENE" network="UW" type="SM"/>
<marker lat="47.6615" lng="-122.3085" station="SEA" channel="ENE" network="UW" type="SM"/>
<marker lat="47.6525" lng="-122.3066" station="SEAS" channel="ENE" network="UW" type="SM"/>
<marker lat="46.1996" lng="-122.1928" station="SEP" channel="EHE" network="CC" type="SP"/>
<marker lat="47.6094" lng="-117.3745" station="SFER" channel="EHZ" network="UW" type="SP"/>
<marker lat="48.8523" lng="-121.6808" station="SHUK" channel="BHE" network="UW" type="BB"/>
<marker lat="46.2025" lng="-122.2293" station="SHW" channel="EHZ" network="UW" type="SP"/>
<marker lat="47.7523" lng="-120.5356" station="SLF" channel="EHZ" network="UW" type="SP"/>
<marker lat="47.1971" lng="-122.2266" station="SMNR" channel="ENE" network="UW" type="SM"/>
<marker lat="47.3230" lng="-123.3417" station="SMW" channel="EHZ" network="UW" type="SP"/>
<marker lat="46.4700" lng="-119.6616" station="SNI" channel="EHZ" network="HW" type="SP"/>
<marker lat="46.2505" lng="-122.1367" station="SOS" channel="EHZ" network="UW" type="SP"/>
<marker lat="42.1793" lng="-122.6950" station="SOUA" channel="ENE" network="UW" type="SM"/>
<marker lat="47.5633" lng="-122.2552" station="SP2" channel="ENE" network="UW" type="SM"/>
<marker lat="48.0765" lng="-123.0427" station="SQM" channel="BHE" network="UW" type="BB"/>
<marker lat="44.8472" lng="-122.4615" station="SSO" channel="EHZ" network="UW" type="SP"/>
<marker lat="47.5747" lng="-122.3262" station="SSS2" channel="ENE" network="UW" type="SM"/>
<marker lat="46.8564" lng="-121.7998" station="STAR" channel="EHE" network="UW" type="SP"/>
<marker lat="46.2331" lng="-122.2143" station="STD" channel="BHE" network="CC" type="BB"/>
<marker lat="47.7595" lng="-121.8688" station="STOR" channel="BHE" network="UW" type="BB"/>
<marker lat="48.1416" lng="-123.6692" station="STW" channel="EHZ" network="UW" type="SP"/>
<marker lat="46.2084" lng="-122.1675" station="SUG" channel="EHZ" network="CC" type="SP"/>
<marker lat="48.2797" lng="-122.6236" station="SVOH" channel="EHZ" network="UW" type="SP"/>
<marker lat="47.4992" lng="-121.7719" station="SVTR" channel="ENE" network="UW" type="SM"/>
<marker lat="46.1956" lng="-122.1936" station="SWFL" channel="BHE" network="CC" type="BB"/>
<marker lat="48.0064" lng="-122.4101" station="SWID" channel="ENE" network="UW" type="SM"/>
<marker lat="43.7484" lng="-124.0873" station="TAKO" channel="BHE" network="UW" type="BB"/>
<marker lat="47.1707" lng="-120.6029" station="TBM" channel="EHZ" network="UW" type="SP"/>
<marker lat="47.2607" lng="-122.3662" station="TBPA" channel="ENE" network="UW" type="SM"/>
<marker lat="45.2884" lng="-121.7924" station="TDH" channel="EHZ" network="UW" type="SP"/>
<marker lat="46.3582" lng="-122.2163" station="TDL" channel="EHZ" network="UW" type="SP"/>
<marker lat="46.2348" lng="-122.1496" station="TIMB" channel="EHZ" network="CC" type="SP"/>
<marker lat="47.5276" lng="-122.3079" station="TKCO" channel="ENE" network="UW" type="SM"/>
<marker lat="47.6864" lng="-121.6949" station="TLW1" channel="ENE" network="UW" type="SM"/>
<marker lat="44.6254" lng="-123.9207" station="TOLO" channel="BHE" network="UW" type="BB"/>
<marker lat="47.7034" lng="-121.6879" station="TOLT" channel="BHE" network="UW" type="BB"/>
<marker lat="42.7235" lng="-120.8909" station="TREE" channel="BHE" network="UW" type="BB"/>
<marker lat="46.2922" lng="-120.5468" station="TRW" channel="EHZ" network="UW" type="SP"/>
<marker lat="46.5088" lng="-118.1533" station="TUCA" channel="BHE" network="UW" type="BB"/>
<marker lat="47.1325" lng="-120.8688" station="TWW" channel="EHZ" network="UW" type="SP"/>
<marker lat="45.2872" lng="-118.9606" station="UMAT" channel="BHE" network="UW" type="BB"/>
<marker lat="43.2878" lng="-123.3286" station="UMPQ" channel="EHZ" network="UW" type="SP"/>
<marker lat="47.2703" lng="-122.4880" station="UPS" channel="ENE" network="UW" type="SM"/>
<marker lat="48.5500" lng="-123.0127" station="UWFH" channel="EHZ" network="UW" type="SP"/>
<marker lat="46.2077" lng="-122.1842" station="VALT" channel="BHE" network="CC" type="BB"/>
<marker lat="45.0617" lng="-121.5785" station="VBE" channel="EHZ" network="UW" type="SP"/>
<marker lat="44.9728" lng="-120.9894" station="VCR" channel="EHZ" network="UW" type="SP"/>
<marker lat="45.3109" lng="-121.4699" station="VFP" channel="EHZ" network="UW" type="SP"/>
<marker lat="45.1528" lng="-122.2805" station="VG2" channel="EHZ" network="UW" type="SP"/>
<marker lat="45.5230" lng="-120.7700" station="VGB" channel="EHZ" network="UW" type="SP"/>
<marker lat="44.5114" lng="-120.6122" station="VIP" channel="EHZ" network="UW" type="SP"/>
<marker lat="45.4586" lng="-121.6781" station="VLL" channel="EHZ" network="UW" type="SP"/>
<marker lat="45.5475" lng="-122.0356" station="VLM" channel="EHZ" network="UW" type="SP"/>
<marker lat="42.3390" lng="-121.9586" station="VSP" channel="EHZ" network="UW" type="SP"/>
<marker lat="46.9606" lng="-120.0080" station="VT2" channel="EHZ" network="UW" type="SP"/>
<marker lat="45.1814" lng="-120.5615" station="VTH" channel="EHZ" network="UW" type="SP"/>
<marker lat="47.4180" lng="-122.4632" station="VVHS" channel="EHZ" network="UW" type="SP"/>
<marker lat="46.7537" lng="-119.5590" station="WA2" channel="EHZ" network="UW" type="SP"/>
<marker lat="47.6967" lng="-119.9502" station="WAT" channel="EHZ" network="UW" type="SP"/>
<marker lat="47.9477" lng="-119.8539" station="WEL1" channel="ENE" network="UW" type="SM"/>
<marker lat="47.9520" lng="-119.8560" station="WEL2" channel="ENE" network="UW" type="SM"/>
<marker lat="44.0538" lng="-121.8220" station="WIFE" channel="BHE" network="CC" type="BB"/>
<marker lat="47.6150" lng="-122.1837" station="WISC" channel="ENE" network="UW" type="SM"/>
<marker lat="47.1095" lng="-123.7805" station="WISH" channel="BHE" network="UW" type="BB"/>
<marker lat="46.4273" lng="-119.2868" station="WIW" channel="EHZ" network="UW" type="SP"/>
<marker lat="46.3919" lng="-119.2694" station="WIXX" channel="BHE" network="HW" type="BB"/>
<marker lat="47.0520" lng="-118.9255" station="WOLL" channel="BHE" network="UW" type="BB"/>
<marker lat="45.5762" lng="-122.7935" station="WPO" channel="EHZ" network="UW" type="SP"/>
<marker lat="46.6971" lng="-121.5416" station="WPW" channel="EHZ" network="UW" type="SP"/>
<marker lat="46.9625" lng="-119.1470" station="WRD" channel="EHZ" network="UW" type="SP"/>
<marker lat="47.8625" lng="-120.8854" station="WRW" channel="EHZ" network="UW" type="SP"/>
<marker lat="42.4402" lng="-118.6446" station="WVOR" channel="BHE" network="US" type="BB"/>
<marker lat="46.0447" lng="-118.3106" station="WWHS" channel="ENE" network="UW" type="SM"/>
<marker lat="46.5310" lng="-120.5262" station="YA2" channel="EHZ" network="UW" type="SP"/>
<marker lat="45.9253" lng="-122.4271" station="YACT" channel="BHE" network="UW" type="BB"/>
<marker lat="46.0582" lng="-118.9596" station="YPT" channel="EHZ" network="UW" type="SP"/>
</markers>
