<markers>
<marker lat="19.3703" lng="-155.2620" station="AHUD" channel="EHZ" network="HV" location="--" type="SP"/>
<marker lat="19.3720" lng="-155.4580" station="AIND" channel="HWZ" network="HV" location="--" type="BB"/>
<marker lat="19.4120" lng="-155.2600" station="BYL" channel="HWZ" network="HV" location="--" type="BB"/>
<marker lat="19.4852" lng="-155.9150" station="CAC" channel="EHZ" network="HV" location="--" type="SP"/>
<marker lat="19.3920" lng="-155.3260" station="CPKD" channel="EHZ" network="HV" location="--" type="SP"/>
<marker lat="19.3540" lng="-155.6650" station="DAND" channel="EHZ" network="HV" location="--" type="SP"/>
<marker lat="19.3340" lng="-155.3860" station="DESD" channel="EHZ" network="HV" location="--" type="SP"/>
<marker lat="21.2632" lng="-157.8006" station="DHH" channel="EHZ" network="PT" location="--" type="SP"/>
<marker lat="19.4083" lng="-155.2360" station="ESR" channel="EHZ" network="HV" location="--" type="SP"/>
<marker lat="19.4230" lng="-155.2610" station="HAT" channel="HHZ" network="HV" location="--" type="BB"/>
<marker lat="19.7033" lng="-155.0806" station="HILB" channel="HHZ" network="PT" location="--" type="BB"/>
<marker lat="20.7583" lng="-156.2489" station="HLK" channel="HHZ" network="PT" location="--" type="BB"/>
<marker lat="19.2960" lng="-155.3080" station="HLPD" channel="HHZ" network="HV" location="--" type="BB"/>
<marker lat="21.3164" lng="-157.9977" station="HON" channel="HHZ" network="PT" location="--" type="BB"/>
<marker lat="20.0303" lng="-155.6973" station="HPAH" channel="HHZ" network="PT" location="--" type="BB"/>
<marker lat="19.0889" lng="-155.5539" station="HPO" channel="HNZ" network="PT" location="--" type="SM"/>
<marker lat="19.7778" lng="-155.4560" station="HPUD" channel="EHZ" network="HV" location="--" type="SP"/>
<marker lat="19.6022" lng="-155.4830" station="HSSD" channel="EHZ" network="HV" location="--" type="SP"/>
<marker lat="19.2374" lng="-155.3976" station="HTCD" channel="EHZ" network="HV" location="--" type="SP"/>
<marker lat="19.6845" lng="-155.8360" station="HUA" channel="EHZ" network="HV" location="--" type="SP"/>
<marker lat="19.4160" lng="-154.9760" station="HULD" channel="HWZ" network="HV" location="--" type="BB"/>
<marker lat="19.3841" lng="-155.1016" station="JCUZ" channel="HHZ" network="HV" location="--" type="BB"/>
<marker lat="19.2633" lng="-155.8690" station="KAA" channel="EHZ" network="HV" location="--" type="SP"/>
<marker lat="19.2862" lng="-155.1300" station="KAE" channel="EHZ" network="HV" location="--" type="SP"/>
<marker lat="19.2857" lng="-155.1292" station="KAED" channel="EHZ" network="HV" location="--" type="SP"/>
<marker lat="21.9829" lng="-159.7110" station="KEKH" channel="HHZ" network="PT" location="--" type="BB"/>
<marker lat="20.8972" lng="-156.4264" station="KHLH" channel="HHZ" network="PT" location="--" type="BB"/>
<marker lat="19.5920" lng="-155.8931" station="KHLU" channel="HHZ" network="PT" location="--" type="BB"/>
<marker lat="19.2453" lng="-155.6160" station="KHU" channel="EHZ" network="HV" location="--" type="SP"/>
<marker lat="19.5063" lng="-155.7620" station="KII" channel="EHZ" network="HV" location="--" type="SP"/>
<marker lat="21.4203" lng="-158.0110" station="KIP" channel="HHZ" network="IU" location="--" type="BB"/>
<marker lat="19.6534" lng="-156.0170" station="KKH" channel="EHZ" network="PT" location="--" type="SP"/>
<marker lat="19.3978" lng="-155.2660" station="KKO" channel="HWZ" network="HV" location="--" type="BB"/>
<marker lat="19.8868" lng="-155.3400" station="KKU" channel="EHZ" network="HV" location="--" type="SP"/>
<marker lat="19.4550" lng="-154.9180" station="KLU" channel="EHZ" network="HV" location="--" type="SP"/>
<marker lat="19.3795" lng="-155.1693" station="KNHD" channel="EHZ" network="HV" location="--" type="SP"/>
<marker lat="20.1252" lng="-155.7770" station="KOH" channel="EHZ" network="HV" location="--" type="SP"/>
<marker lat="19.4023" lng="-155.0750" station="KUPD" channel="EHZ" network="HV" location="--" type="SP"/>
<marker lat="21.9870" lng="-159.3384" station="LIH" channel="HHZ" network="PT" location="--" type="BB"/>
<marker lat="19.9919" lng="-155.2411" station="LPH" channel="HNZ" network="PT" location="--" type="SM"/>
<marker lat="20.1846" lng="-155.9004" station="MHA" channel="EHZ" network="PT" location="--" type="SP"/>
<marker lat="19.3358" lng="-155.3011" station="MITD" channel="EHZ" network="HV" location="--" type="SP"/>
<marker lat="19.5359" lng="-155.5764" station="MLOA" channel="HHZ" network="PT" location="--" type="BB"/>
<marker lat="19.4940" lng="-155.3860" station="MLOD" channel="HWZ" network="HV" location="--" type="BB"/>
<marker lat="19.4850" lng="-155.5970" station="MOK" channel="EHZ" network="HV" location="--" type="SP"/>
<marker lat="19.6986" lng="-155.0245" station="NAGD" channel="EHZ" network="HV" location="--" type="SP"/>
<marker lat="19.3930" lng="-155.1096" station="NPOC" channel="HHZ" network="HV" location="--" type="BB"/>
<marker lat="19.4120" lng="-155.2810" station="NPT" channel="HWZ" network="HV" location="--" type="BB"/>
<marker lat="19.4175" lng="-155.2840" station="OBL" channel="HWZ" network="HV" location="--" type="BB"/>
<marker lat="21.6872" lng="-158.0097" station="OPA" channel="HHZ" network="PT" location="--" type="BB"/>
<marker lat="19.3870" lng="-155.2800" station="OTLD" channel="EHZ" network="HV" location="--" type="SP"/>
<marker lat="19.1510" lng="-155.7630" station="OVED" channel="EHZ" network="HV" location="--" type="SP"/>
<marker lat="19.4951" lng="-154.9157" station="P07" channel="EHZ" network="PH" location="--" type="SP"/>
<marker lat="19.3740" lng="-155.2160" station="PAUD" channel="HWZ" network="HV" location="--" type="BB"/>
<marker lat="19.5303" lng="-155.4580" station="PLAD" channel="EHZ" network="HV" location="--" type="SP"/>
<marker lat="19.7545" lng="-155.5300" station="POHA" channel="HHZ" network="IU" location="--" type="BB"/>
<marker lat="19.2812" lng="-155.2247" station="POLD" channel="EHZ" network="HV" location="--" type="SP"/>
<marker lat="19.1556" lng="-155.4620" station="PPLD" channel="EHZ" network="HV" location="--" type="SP"/>
<marker lat="19.4030" lng="-155.6270" station="RCOD" channel="EHZ" network="HV" location="--" type="SP"/>
<marker lat="19.3953" lng="-155.2740" station="RIMD" channel="EHZ" network="HV" location="--" type="SP"/>
<marker lat="19.4270" lng="-155.2680" station="SBL" channel="HHZ" network="HV" location="--" type="BB"/>
<marker lat="19.3895" lng="-155.2940" station="SDH" channel="HWZ" network="HV" location="--" type="BB"/>
<marker lat="18.9790" lng="-155.6680" station="SPDD" channel="EHZ" network="HV" location="--" type="SP"/>
<marker lat="19.3853" lng="-155.1250" station="STCD" channel="HWZ" network="HV" location="--" type="BB"/>
<marker lat="19.4513" lng="-155.6020" station="SWR" channel="EHZ" network="HV" location="--" type="SP"/>
<marker lat="19.4122" lng="-155.5470" station="TRAD" channel="EHZ" network="HV" location="--" type="SP"/>
<marker lat="19.4247" lng="-155.2780" station="UWB" channel="HHZ" network="HV" location="--" type="BB"/>
<marker lat="19.4211" lng="-155.2914" station="UWE" channel="HHZ" network="HV" location="--" type="BB"/>
<marker lat="19.8567" lng="-155.6570" station="WAI" channel="EHZ" network="HV" location="--" type="SP"/>
<marker lat="19.4662" lng="-155.5810" station="WIL" channel="EHZ" network="HV" location="--" type="SP"/>
<marker lat="21.3203" lng="-157.6823" station="WMR" channel="EHZ" network="PT" location="--" type="SP"/>
<marker lat="19.2480" lng="-155.4990" station="WOOD" channel="EHZ" network="HV" location="--" type="SP"/>
<marker lat="19.4065" lng="-155.3000" station="WRM" channel="HHZ" network="HV" location="--" type="BB"/>
</markers>
