<?xml version="1.0" encoding="UTF-8"?>
	<!-- created by db2googlemaps from database: /avort/oprun/dbmaster/master_stations at 2011/12/08 23:31:37 UTC UTC -->
<markers>
<marker lat="58.2107" lng="-155.3260" station="ACH" channel="EHZ" network="AV" location="--" type="SP"/>
<marker lat="54.1153" lng="-165.8157" station="AHB" channel="EHZ" network="AV" location="--" type="SP"/>
<marker lat="54.1104" lng="-165.6967" station="AKS" channel="EHZ" network="AV" location="--" type="SP"/>
<marker lat="54.1262" lng="-165.9627" station="AKV" channel="EHZ" network="AV" location="--" type="SP"/>
<marker lat="58.1988" lng="-155.4940" station="ANCK" channel="EHZ" network="AV" location="--" type="SP"/>
<marker lat="56.9127" lng="-158.0589" station="ANNE" channel="EHZ" network="AV" location="--" type="SP"/>
<marker lat="56.9664" lng="-158.2149" station="ANNW" channel="EHZ" network="AV" location="--" type="SP"/>
<marker lat="56.9198" lng="-158.1716" station="ANON" channel="EHZ" network="AV" location="--" type="SP"/>
<marker lat="56.8024" lng="-158.2808" station="ANPB" channel="EHZ" network="AV" location="--" type="SP"/>
<marker lat="56.8417" lng="-158.1262" station="ANPK" channel="EHZ" network="AV" location="--" type="SP"/>
<marker lat="55.1945" lng="-162.7836" station="BLDY" channel="EHZ" network="AV" location="--" type="SP"/>
<marker lat="55.7038" lng="-162.0651" station="BLHA" channel="EHZ" network="AV" location="--" type="SP"/>
<marker lat="54.6455" lng="-163.7408" station="BRPK" channel="EHZ" network="AV" location="--" type="SP"/>
<marker lat="58.0525" lng="-155.3015" station="CAHL" channel="EHZ" network="AV" location="--" type="SP"/>
<marker lat="54.8200" lng="-159.5886" station="CHN" channel="EHZ" network="AK" location="--" type="SP"/>
<marker lat="58.2645" lng="-155.8837" station="CNTC" channel="EHZ" network="AV" location="--" type="SP"/>
<marker lat="55.1493" lng="-161.8614" station="DOL" channel="EHZ" network="AV" location="--" type="SP"/>
<marker lat="54.9669" lng="-162.2611" station="DRR3" channel="EHZ" network="AV" location="--" type="SP"/>
<marker lat="55.1071" lng="-162.2781" station="DT1" channel="EHZ" network="AV" location="--" type="SP"/>
<marker lat="55.1457" lng="-162.2570" station="DTN" channel="EHZ" network="AV" location="--" type="SP"/>
<marker lat="55.3178" lng="-161.9025" station="HAG" channel="EHZ" network="AV" location="--" type="SP"/>
<marker lat="54.1868" lng="-165.9124" station="HSB" channel="EHZ" network="AV" location="--" type="SP"/>
<marker lat="54.8323" lng="-163.7784" station="ISNN" channel="EHZ" network="AV" location="--" type="SP"/>
<marker lat="58.1312" lng="-154.9692" station="KABR" channel="EHZ" network="AV" location="--" type="SP"/>
<marker lat="58.4850" lng="-155.0458" station="KAIC" channel="EHZ" network="AV" location="--" type="SP"/>
<marker lat="58.2750" lng="-155.2017" station="KBM" channel="EHZ" network="AV" location="--" type="SP"/>
<marker lat="58.2433" lng="-155.1833" station="KCE" channel="EHZ" network="AV" location="--" type="SP"/>
<marker lat="58.3076" lng="-155.1114" station="KCG" channel="EHZ" network="AV" location="--" type="SP"/>
<marker lat="58.4400" lng="-155.7407" station="KEL" channel="EHZ" network="AV" location="--" type="SP"/>
<marker lat="58.0540" lng="-155.5732" station="KJL" channel="EHZ" network="AV" location="--" type="SP"/>
<marker lat="58.3817" lng="-155.2950" station="KVT" channel="EHZ" network="AV" location="--" type="SP"/>
<marker lat="54.1609" lng="-166.0337" station="LVA" channel="EHZ" network="AV" location="--" type="SP"/>
<marker lat="53.9514" lng="-166.8922" station="MCIR" channel="EHZ" network="AV" location="--" type="SP"/>
<marker lat="58.1343" lng="-155.1608" station="MGLS" channel="EHZ" network="AV" location="--" type="SP"/>
<marker lat="53.7947" lng="-166.8760" station="MGOD" channel="EHZ" network="AV" location="--" type="SP"/>
<marker lat="53.8838" lng="-166.6836" station="MNAT" channel="EHZ" network="AV" location="--" type="SP"/>
<marker lat="53.8163" lng="-166.9364" station="MSOM" channel="EHZ" network="AV" location="--" type="SP"/>
<marker lat="53.9689" lng="-166.6793" station="MTBL" channel="EHZ" network="AV" location="--" type="SP"/>
<marker lat="54.9783" lng="-160.1382" station="NAG" channel="EHZ" network="AK" location="--" type="SP"/>
<marker lat="55.4337" lng="-161.9952" station="PN7A" channel="EHZ" network="AV" location="--" type="SP"/>
<marker lat="55.4220" lng="-161.7404" station="PS1A" channel="EHZ" network="AV" location="--" type="SP"/>
<marker lat="55.4536" lng="-161.9850" station="PV6" channel="EHZ" network="AV" location="--" type="SP"/>
<marker lat="55.3740" lng="-161.7899" station="PVV" channel="EHZ" network="AV" location="--" type="SP"/>
<marker lat="54.8118" lng="-163.9959" station="SSLN" channel="EHZ" network="AV" location="--" type="SP"/>
<marker lat="54.7120" lng="-163.9988" station="SSLS" channel="EHZ" network="AV" location="--" type="SP"/>
<marker lat="54.7718" lng="-164.1214" station="SSLW" channel="EHZ" network="AV" location="--" type="SP"/>
<marker lat="54.4732" lng="-164.5840" station="WESE" channel="EHZ" network="AV" location="--" type="SP"/>
<marker lat="54.5724" lng="-164.5784" station="WESN" channel="EHZ" network="AV" location="--" type="SP"/>
<marker lat="54.8475" lng="-164.3853" station="WTUG" channel="EHZ" network="AV" location="--" type="SP"/>
<marker lat="54.0916" lng="-165.9780" station="ZRO" channel="EHZ" network="AV" location="--" type="SP"/>
<marker lat="56.2211" lng="-159.1642" station="VNHG" channel="EHZ" network="AV" location="--" type="SP"/>
<marker lat="56.0312" lng="-159.3678" station="VNKR" channel="EHZ" network="AV" location="--" type="SP"/>
<marker lat="56.1258" lng="-159.0854" station="VNSG" channel="EHZ" network="AV" location="--" type="SP"/>
<marker lat="56.2267" lng="-159.4548" station="VNSS" channel="EHZ" network="AV" location="--" type="SP"/>
<marker lat="56.2857" lng="-159.5511" station="VNFG" channel="EHZ" network="AV" location="--" type="SP"/>
<marker lat="56.2837" lng="-159.3160" station="VNNF" channel="EHZ" network="AV" location="--" type="SP"/>
<marker lat="56.0720" lng="-159.5585" station="VNSW" channel="EHZ" network="AV" location="--" type="SP"/>
<marker lat="56.1517" lng="-159.5622" station="VNWF" channel="EHZ" network="AV" location="--" type="SP"/>
<marker lat="56.8954" lng="-158.2307" station="AZAC" channel="EHZ" network="AV" location="--" type="SP"/>
<marker lat="56.5897" lng="-158.4526" station="BPBC" channel="EHZ" network="AV" location="--" type="SP"/>
<marker lat="53.3958" lng="-168.1362" station="OKCF" channel="EHZ" network="AV" location="--" type="SP"/>
<marker lat="53.4546" lng="-168.0493" station="OKER" channel="EHZ" network="AV" location="--" type="SP"/>
<marker lat="53.4774" lng="-167.8162" station="OKID" channel="EHZ" network="AV" location="--" type="SP"/>
<marker lat="53.5202" lng="-168.1641" station="OKRE" channel="EHZ" network="AV" location="--" type="SP"/>
<marker lat="53.2526" lng="-168.2905" station="OKSP" channel="EHZ" network="AV" location="--" type="SP"/>
<marker lat="53.3839" lng="-168.0411" station="OKTU" channel="EHZ" network="AV" location="--" type="SP"/>
<marker lat="53.4721" lng="-168.2398" station="OKWE" channel="EHZ" network="AV" location="--" type="SP"/>
<marker lat="53.4347" lng="-168.2056" station="OKWR" channel="EHZ" network="AV" location="--" type="SP"/>
<marker lat="53.8105" lng="-166.7456" station="MREP" channel="EHZ" network="AV" location="--" type="SP"/>
<marker lat="57.6998" lng="-156.8189" station="PLBL" channel="EHZ" network="AV" location="--" type="SP"/>
<marker lat="57.8019" lng="-156.6072" station="PLK1" channel="EHZ" network="AV" location="--" type="SP"/>
<marker lat="57.7642" lng="-156.3243" station="PLK2" channel="EHZ" network="AV" location="--" type="SP"/>
<marker lat="57.6887" lng="-156.2674" station="PLK3" channel="EHZ" network="AV" location="--" type="SP"/>
<marker lat="57.6321" lng="-156.3577" station="PLK4" channel="EHZ" network="AV" location="--" type="SP"/>
<marker lat="57.9977" lng="-156.8777" station="PLK5" channel="EHZ" network="AV" location="--" type="SP"/>
<marker lat="58.0449" lng="-156.3413" station="PLWL" channel="EHZ" network="AV" location="--" type="SP"/>
<marker lat="53.4123" lng="-168.3580" station="OKAK" channel="EHZ" network="AV" location="--" type="SP"/>
<marker lat="54.7260" lng="-163.7110" station="ISLZ" channel="EHZ" network="AV" location="--" type="SP"/>
<marker lat="54.5911" lng="-164.7530" station="WEBT" channel="EHZ" network="AV" location="--" type="SP"/>
<marker lat="54.5309" lng="-164.7776" station="WECS" channel="EHZ" network="AV" location="--" type="SP"/>
<marker lat="54.4935" lng="-164.7213" station="WESP" channel="EHZ" network="AV" location="--" type="SP"/>
<marker lat="55.3469" lng="-161.8539" station="PS4A" channel="EHZ" network="AV" location="--" type="SP"/>
<marker lat="54.1352" lng="-165.7719" station="AKUT" channel="BHZ" network="AT" location="--" type="BB"/>
<marker lat="56.3014" lng="-158.4142" station="CHGN" channel="BHZ" network="AT" location="--" type="BB"/>
<marker lat="55.3493" lng="-160.4766" station="SDPT" channel="BHZ" network="AT" location="--" type="BB"/>
<marker lat="54.0984" lng="-165.9318" station="AKBB" channel="BHZ" network="AV" location="--" type="BB"/>
<marker lat="54.1988" lng="-165.9916" station="AKGG" channel="BHZ" network="AV" location="--" type="BB"/>
<marker lat="54.1627" lng="-165.9556" station="AKLV" channel="BHZ" network="AV" location="--" type="BB"/>
<marker lat="54.0912" lng="-166.0106" station="AKMO" channel="BHZ" network="AV" location="--" type="BB"/>
<marker lat="54.1301" lng="-166.0688" station="AKRB" channel="BHZ" network="AV" location="--" type="BB"/>
<marker lat="54.1104" lng="-165.6967" station="AKSA" channel="BHZ" network="AV" location="--" type="BB"/>
<marker lat="55.8225" lng="-155.6205" station="CHI" channel="BHZ" network="AK" location="--" type="BB"/>
<marker lat="54.8573" lng="-163.4155" station="FALS" channel="BHZ" network="AK" location="--" type="BB"/>
<marker lat="58.2709" lng="-155.2822" station="KABU" channel="BHZ" network="AV" location="--" type="BB"/>
<marker lat="58.2970" lng="-155.0611" station="KAKN" channel="BHZ" network="AV" location="--" type="BB"/>
<marker lat="53.9155" lng="-166.7864" station="MSW" channel="EHZ" network="AV" location="--" type="SP"/>
<marker lat="53.9155" lng="-166.7864" station="MSW" channel="BHZ" network="AV" location="--" type="BB"/>
<marker lat="52.9731" lng="-168.8530" station="NIKH" channel="BHZ" network="AK" location="--" type="BB"/>
<marker lat="53.4570" lng="-168.1237" station="OKNC" channel="BHZ" network="AV" location="--" type="BB"/>
<marker lat="53.4270" lng="-168.1643" station="OKCE" channel="BHZ" network="AV" location="--" type="BB"/>
<marker lat="53.4117" lng="-167.9095" station="OKFG" channel="BHZ" network="AV" location="--" type="BB"/>
<marker lat="53.3575" lng="-168.1599" station="OKSO" channel="BHZ" network="AV" location="--" type="BB"/>
<marker lat="56.5594" lng="-154.1842" station="SII" channel="BHZ" network="AK" location="--" type="BB"/>
<marker lat="57.1776" lng="-170.2455" station="SPIA" channel="BHZ" network="AK" location="--" type="BB"/>
<marker lat="54.7727" lng="-164.1245" station="SSBA" channel="BHZ" network="AV" location="--" type="BB"/>
<marker lat="53.8465" lng="-166.5020" station="UNV" channel="BHZ" network="AK" location="--" type="BB"/>
</markers>
