<?xml version="1.0" encoding="UTF-8"?>
	<!-- created by db2googlemaps from database: /avort/oprun/dbmaster/master_stations at 2011/12/08 23:31:13 UTC UTC -->
<markers>
<marker lat="51.9189" lng="-177.1953" station="KICM" channel="EHZ" network="AV" location="--" type="SP"/>
<marker lat="51.8788" lng="-177.1704" station="KIKV" channel="EHZ" network="AV" location="--" type="SP"/>
<marker lat="51.7616" lng="-177.2349" station="KIMD" channel="EHZ" network="AV" location="--" type="SP"/>
<marker lat="51.9314" lng="-177.1276" station="KINC" channel="EHZ" network="AV" location="--" type="SP"/>
<marker lat="51.8996" lng="-177.0935" station="KIRH" channel="EHZ" network="AV" location="--" type="SP"/>
<marker lat="51.8531" lng="-177.1508" station="KIWB" channel="EHZ" network="AV" location="--" type="SP"/>
</markers>
