<?xml version="1.0" encoding="UTF-8"?>
<markers>
	<!-- created by css2volcxml from database: /avort/oprun/dbmaster/master_stations on 10/19/2011  22:05:22.119 UTC -->
<marker lat="51.7617" lng="-178.7715" station="GALA" channel="EHZ" network="AV" location="--" type="SP"/>
<marker lat="51.8189" lng="-178.7767" station="GANE" channel="EHZ" network="AV" location="--" type="SP"/>
<marker lat="51.7830" lng="-178.7468" station="GAEA" channel="EHZ" network="AV" location="--" type="SP"/>
<marker lat="51.8203" lng="-178.8038" station="GANO" channel="EHZ" network="AV" location="--" type="SP"/>
<marker lat="51.7789" lng="-178.8546" station="GASW" channel="EHZ" network="AV" location="--" type="SP"/>
</markers>
