<?xml version="1.0" encoding="UTF-8"?>
	<!-- created by db2googlemaps from database: /avort/oprun/dbmaster/master_stations at 2013/05/03 01:09:44 UTC UTC -->
<markers>
<marker lat="58.2100" lng="-155.3281" station="ACH" channel="EHZ" network="AV" location="--" type="SP"/>
<marker lat="51.9791" lng="-176.6037" station="ADAG" channel="EHZ" network="AV" location="--" type="SP"/>
<marker lat="54.1144" lng="-165.8177" station="AHB" channel="EHZ" network="AV" location="--" type="SP"/>
<marker lat="54.0975" lng="-165.9338" station="AKBB" channel="BHZ" network="AV" location="--" type="BB"/>
<marker lat="54.1979" lng="-165.9936" station="AKGG" channel="BHZ" network="AV" location="--" type="BB"/>
<marker lat="54.1618" lng="-165.9576" station="AKLV" channel="BHZ" network="AV" location="--" type="BB"/>
<marker lat="54.0903" lng="-166.0126" station="AKMO" channel="BHZ" network="AV" location="--" type="BB"/>
<marker lat="54.1292" lng="-166.0708" station="AKRB" channel="BHZ" network="AV" location="--" type="BB"/>
<marker lat="54.1095" lng="-165.6987" station="AKS" channel="EHZ" network="AV" location="--" type="SP"/>
<marker lat="54.1095" lng="-165.6987" station="AKSA" channel="BHZ" network="AV" location="--" type="BB"/>
<marker lat="54.1253" lng="-165.9647" station="AKV" channel="EHZ" network="AV" location="--" type="SP"/>
<marker lat="58.1981" lng="-155.4961" station="ANCK" channel="EHZ" network="AV" location="--" type="SP"/>
<marker lat="56.9119" lng="-158.0610" station="ANNE" channel="EHZ" network="AV" location="--" type="SP"/>
<marker lat="56.9656" lng="-158.2170" station="ANNW" channel="EHZ" network="AV" location="--" type="SP"/>
<marker lat="56.9190" lng="-158.1737" station="ANON" channel="EHZ" network="AV" location="--" type="SP"/>
<marker lat="56.8016" lng="-158.2829" station="ANPB" channel="EHZ" network="AV" location="--" type="SP"/>
<marker lat="56.8409" lng="-158.1283" station="ANPK" channel="EHZ" network="AV" location="--" type="SP"/>
<marker lat="59.3711" lng="-153.3773" station="AUE" channel="EHZ" network="AV" location="--" type="SP"/>
<marker lat="59.3632" lng="-153.4454" station="AUH" channel="EHZ" network="AV" location="--" type="SP"/>
<marker lat="59.3345" lng="-153.4299" station="AUI" channel="EHZ" network="AV" location="--" type="SP"/>
<marker lat="59.3493" lng="-153.4106" station="AUJK" channel="EHZ" network="AV" location="--" type="SP"/>
<marker lat="59.3816" lng="-153.4379" station="AUL" channel="EHZ" network="AV" location="--" type="SP"/>
<marker lat="59.3816" lng="-153.4379" station="AUL" channel="BHZ" network="AV" location="--" type="BB"/>
<marker lat="59.3775" lng="-153.4790" station="AUNW" channel="EHZ" network="AV" location="--" type="SP"/>
<marker lat="59.3627" lng="-153.4226" station="AUP" channel="EHZ" network="AV" location="--" type="SP"/>
<marker lat="59.3694" lng="-153.4730" station="AUW" channel="EHZ" network="AV" location="--" type="SP"/>
<marker lat="56.8947" lng="-158.2328" station="AZAC" channel="EHZ" network="AV" location="--" type="SP"/>
<marker lat="61.2663" lng="-152.3913" station="BGL" channel="EHZ" network="AV" location="--" type="SP"/>
<marker lat="59.3920" lng="-155.2315" station="BGM" channel="EHZ" network="AV" location="--" type="SP"/>
<marker lat="60.7569" lng="-152.4199" station="BGR" channel="EHZ" network="AV" location="--" type="SP"/>
<marker lat="61.0696" lng="-152.2650" station="BKG" channel="EHZ" network="AV" location="--" type="SP"/>
<marker lat="55.1936" lng="-162.7856" station="BLDY" channel="EHZ" network="AV" location="--" type="SP"/>
<marker lat="55.7038" lng="-162.0611" station="BLHA" channel="EHZ" network="AV" location="--" type="SP"/>
<marker lat="56.5889" lng="-158.4547" station="BPBC" channel="EHZ" network="AV" location="--" type="SP"/>
<marker lat="54.6446" lng="-163.7428" station="BRPK" channel="EHZ" network="AV" location="--" type="SP"/>
<marker lat="58.0518" lng="-155.3036" station="CAHL" channel="EHZ" network="AV" location="--" type="SP"/>
<marker lat="58.9289" lng="-153.6449" station="CDD" channel="EHZ" network="AV" location="--" type="SP"/>
<marker lat="61.3071" lng="-152.0090" station="CGL" channel="EHZ" network="AV" location="--" type="SP"/>
<marker lat="61.1934" lng="-152.3401" station="CKL" channel="EHZ" network="AV" location="--" type="SP"/>
<marker lat="61.2234" lng="-152.1838" station="CKN" channel="EHZ" network="AV" location="--" type="SP"/>
<marker lat="61.2002" lng="-152.2085" station="CKT" channel="EHZ" network="AV" location="--" type="SP"/>
<marker lat="58.2638" lng="-155.8858" station="CNTC" channel="EHZ" network="AV" location="--" type="SP"/>
<marker lat="61.2636" lng="-152.2441" station="CP2" channel="EHZ" network="AV" location="--" type="SP"/>
<marker lat="61.2664" lng="-152.1578" station="CRP" channel="EHZ" network="AV" location="--" type="SP"/>
<marker lat="60.5913" lng="-152.6882" station="DFR" channel="EHZ" network="AV" location="--" type="SP"/>
<marker lat="55.1488" lng="-161.8638" station="DOL" channel="EHZ" network="AV" location="--" type="SP"/>
<marker lat="54.9660" lng="-162.2631" station="DRR3" channel="EHZ" network="AV" location="--" type="SP"/>
<marker lat="55.1062" lng="-162.2801" station="DT1" channel="EHZ" network="AV" location="--" type="SP"/>
<marker lat="55.1448" lng="-162.2590" station="DTN" channel="EHZ" network="AV" location="--" type="SP"/>
<marker lat="51.8608" lng="-176.4079" station="ETKA" channel="EHZ" network="AV" location="--" type="SP"/>
<marker lat="58.8341" lng="-153.9204" station="FONW" channel="EHZ" network="AV" location="--" type="SP"/>
<marker lat="58.7574" lng="-153.4762" station="FOPK" channel="EHZ" network="AV" location="--" type="SP"/>
<marker lat="58.7987" lng="-153.6971" station="FOSS" channel="EHZ" network="AV" location="--" type="SP"/>
<marker lat="52.0108" lng="-176.1640" station="GSCK" channel="EHZ" network="AV" location="--" type="SP"/>
<marker lat="51.9853" lng="-175.9270" station="GSIG" channel="SHZ" network="AV" location="--" type="SP"/>
<marker lat="52.0421" lng="-176.0583" station="GSMY" channel="EHZ" network="AV" location="--" type="SP"/>
<marker lat="52.0917" lng="-176.1777" station="GSSP" channel="EHZ" network="AV" location="--" type="SP"/>
<marker lat="52.0548" lng="-176.1468" station="GSTD" channel="EHZ" network="AV" location="--" type="SP"/>
<marker lat="52.0932" lng="-176.0611" station="GSTR" channel="EHZ" network="AV" location="--" type="SP"/>
<marker lat="55.3170" lng="-161.9045" station="HAG" channel="EHZ" network="AV" location="--" type="SP"/>
<marker lat="54.1859" lng="-165.9144" station="HSB" channel="EHZ" network="AV" location="--" type="SP"/>
<marker lat="60.0807" lng="-152.9606" station="ILI" channel="EHZ" network="AV" location="--" type="SP"/>
<marker lat="59.9570" lng="-153.0703" station="ILS" channel="EHZ" network="AV" location="--" type="SP"/>
<marker lat="60.0592" lng="-153.1392" station="ILW" channel="EHZ" network="AV" location="--" type="SP"/>
<marker lat="60.0599" lng="-153.0644" station="INE" channel="EHZ" network="AV" location="--" type="SP"/>
<marker lat="54.7251" lng="-163.7130" station="ISLZ" channel="EHZ" network="AV" location="--" type="SP"/>
<marker lat="54.8314" lng="-163.7804" station="ISNN" channel="EHZ" network="AV" location="--" type="SP"/>
<marker lat="60.0163" lng="-153.0185" station="IVE" channel="EHZ" network="AV" location="--" type="SP"/>
<marker lat="60.0086" lng="-153.0830" station="IVS" channel="EHZ" network="AV" location="--" type="SP"/>
<marker lat="58.1305" lng="-154.9713" station="KABR" channel="EHZ" network="AV" location="--" type="SP"/>
<marker lat="58.2702" lng="-155.2843" station="KABU" channel="BHZ" network="AV" location="--" type="BB"/>
<marker lat="58.6483" lng="-155.0081" station="KAHC" channel="EHZ" network="AV" location="--" type="SP"/>
<marker lat="58.4933" lng="-154.5484" station="KAHG" channel="EHZ" network="AV" location="--" type="SP"/>
<marker lat="58.4843" lng="-155.0479" station="KAIC" channel="EHZ" network="AV" location="--" type="SP"/>
<marker lat="58.2963" lng="-155.0632" station="KAKN" channel="BHZ" network="AV" location="--" type="BB"/>
<marker lat="58.5961" lng="-154.3489" station="KAPH" channel="EHZ" network="AV" location="--" type="SP"/>
<marker lat="58.4971" lng="-154.7054" station="KARR" channel="EHZ" network="AV" location="--" type="SP"/>
<marker lat="58.3830" lng="-154.7813" station="KAWH" channel="EHZ" network="AV" location="--" type="SP"/>
<marker lat="58.2743" lng="-155.2038" station="KBM" channel="EHZ" network="AV" location="--" type="SP"/>
<marker lat="58.2426" lng="-155.1854" station="KCE" channel="EHZ" network="AV" location="--" type="SP"/>
<marker lat="58.3069" lng="-155.1135" station="KCG" channel="EHZ" network="AV" location="--" type="SP"/>
<marker lat="58.4393" lng="-155.7428" station="KEL" channel="EHZ" network="AV" location="--" type="SP"/>
<marker lat="51.9178" lng="-177.1973" station="KICM" channel="EHZ" network="AV" location="--" type="SP"/>
<marker lat="51.8777" lng="-177.1724" station="KIKV" channel="EHZ" network="AV" location="--" type="SP"/>
<marker lat="51.7605" lng="-177.2369" station="KIMD" channel="EHZ" network="AV" location="--" type="SP"/>
<marker lat="51.9303" lng="-177.1296" station="KINC" channel="EHZ" network="AV" location="--" type="SP"/>
<marker lat="51.8985" lng="-177.0955" station="KIRH" channel="EHZ" network="AV" location="--" type="SP"/>
<marker lat="51.8520" lng="-177.1528" station="KIWB" channel="EHZ" network="AV" location="--" type="SP"/>
<marker lat="58.0533" lng="-155.5753" station="KJL" channel="EHZ" network="AV" location="--" type="SP"/>
<marker lat="52.2740" lng="-174.0992" station="KOFP" channel="EHZ" network="AV" location="--" type="SP"/>
<marker lat="52.3221" lng="-174.2022" station="KOKL" channel="EHZ" network="AV" location="--" type="SP"/>
<marker lat="52.3603" lng="-174.1673" station="KOKV" channel="EHZ" network="AV" location="--" type="SP"/>
<marker lat="52.3925" lng="-174.1213" station="KONE" channel="EHZ" network="AV" location="--" type="SP"/>
<marker lat="52.3954" lng="-174.2125" station="KONW" channel="EHZ" network="AV" location="--" type="SP"/>
<marker lat="52.3447" lng="-174.0505" station="KOSE" channel="EHZ" network="AV" location="--" type="SP"/>
<marker lat="52.3646" lng="-174.2527" station="KOWE" channel="EHZ" network="AV" location="--" type="SP"/>
<marker lat="58.3810" lng="-155.2971" station="KVT" channel="EHZ" network="AV" location="--" type="SP"/>
<marker lat="54.1600" lng="-166.0358" station="LVA" channel="EHZ" network="AV" location="--" type="SP"/>
<marker lat="53.9505" lng="-166.8942" station="MCIR" channel="EHZ" network="AV" location="--" type="SP"/>
<marker lat="58.1336" lng="-155.1629" station="MGLS" channel="EHZ" network="AV" location="--" type="SP"/>
<marker lat="53.7938" lng="-166.8780" station="MGOD" channel="EHZ" network="AV" location="--" type="SP"/>
<marker lat="53.7938" lng="-166.8780" station="MGOD" channel="BHZ" network="AV" location="--" type="BB"/>
<marker lat="59.1845" lng="-154.3389" station="MMN" channel="EHZ" network="AV" location="--" type="SP"/>
<marker lat="53.8829" lng="-166.6856" station="MNAT" channel="EHZ" network="AV" location="--" type="SP"/>
<marker lat="53.8829" lng="-166.6856" station="MNAT" channel="BHZ" network="AV" location="--" type="BB"/>
<marker lat="53.8098" lng="-166.7476" station="MREP" channel="EHZ" network="AV" location="--" type="SP"/>
<marker lat="53.9148" lng="-166.7880" station="MSW" channel="EHZ" network="AV" location="--" type="SP"/>
<marker lat="53.9148" lng="-166.7880" station="MSW" channel="BHZ" network="AV" location="--" type="BB"/>
<marker lat="53.9680" lng="-166.6813" station="MTBL" channel="EHZ" network="AV" location="--" type="SP"/>
<marker lat="61.4031" lng="-152.1590" station="NCG" channel="EHZ" network="AV" location="--" type="SP"/>
<marker lat="60.5621" lng="-152.9293" station="NCT" channel="EHZ" network="AV" location="--" type="SP"/>
<marker lat="60.5621" lng="-152.9293" station="NCT" channel="BHZ" network="AV" location="--" type="BB"/>
<marker lat="53.4113" lng="-168.3600" station="OKAK" channel="EHZ" network="AV" location="--" type="SP"/>
<marker lat="53.4260" lng="-168.1663" station="OKCE" channel="BHZ" network="AV" location="--" type="BB"/>
<marker lat="53.3948" lng="-168.1382" station="OKCF" channel="EHZ" network="AV" location="--" type="SP"/>
<marker lat="53.4536" lng="-168.0513" station="OKER" channel="EHZ" network="AV" location="--" type="SP"/>
<marker lat="53.4107" lng="-167.9115" station="OKFG" channel="BHZ" network="AV" location="--" type="BB"/>
<marker lat="53.4764" lng="-167.8182" station="OKID" channel="EHZ" network="AV" location="--" type="SP"/>
<marker lat="53.4559" lng="-168.1257" station="OKNC" channel="BHZ" network="AV" location="--" type="BB"/>
<marker lat="53.5192" lng="-168.1661" station="OKRE" channel="EHZ" network="AV" location="--" type="SP"/>
<marker lat="53.3565" lng="-168.1619" station="OKSO" channel="BHZ" network="AV" location="--" type="BB"/>
<marker lat="53.2516" lng="-168.2925" station="OKSP" channel="EHZ" network="AV" location="--" type="SP"/>
<marker lat="53.3829" lng="-168.0431" station="OKTU" channel="EHZ" network="AV" location="--" type="SP"/>
<marker lat="53.4711" lng="-168.2418" station="OKWE" channel="EHZ" network="AV" location="--" type="SP"/>
<marker lat="53.4337" lng="-168.2076" station="OKWR" channel="EHZ" network="AV" location="--" type="SP"/>
<marker lat="59.6526" lng="-153.2321" station="OPT" channel="EHZ" network="AV" location="--" type="SP"/>
<marker lat="59.6526" lng="-153.2321" station="OPT" channel="EHZ" network="AV" location="--" type="SP"/>
<marker lat="59.7841" lng="-154.1917" station="PDB" channel="EHZ" network="AV" location="--" type="SP"/>
<marker lat="57.6991" lng="-156.8210" station="PLBL" channel="EHZ" network="AV" location="--" type="SP"/>
<marker lat="57.8012" lng="-156.6093" station="PLK1" channel="EHZ" network="AV" location="--" type="SP"/>
<marker lat="57.7635" lng="-156.3264" station="PLK2" channel="EHZ" network="AV" location="--" type="SP"/>
<marker lat="57.6880" lng="-156.2695" station="PLK3" channel="EHZ" network="AV" location="--" type="SP"/>
<marker lat="57.6314" lng="-156.3598" station="PLK4" channel="EHZ" network="AV" location="--" type="SP"/>
<marker lat="57.9970" lng="-156.8798" station="PLK5" channel="EHZ" network="AV" location="--" type="SP"/>
<marker lat="58.0442" lng="-156.3434" station="PLWL" channel="EHZ" network="AV" location="--" type="SP"/>
<marker lat="55.4329" lng="-161.9973" station="PN7A" channel="EHZ" network="AV" location="--" type="SP"/>
<marker lat="55.4201" lng="-161.7437" station="PS1A" channel="EHZ" network="AV" location="--" type="SP"/>
<marker lat="55.3460" lng="-161.8567" station="PS4A" channel="EHZ" network="AV" location="--" type="SP"/>
<marker lat="55.4528" lng="-161.9205" station="PV6" channel="EHZ" network="AV" location="--" type="SP"/>
<marker lat="55.3732" lng="-161.7919" station="PVV" channel="EHZ" network="AV" location="--" type="SP"/>
<marker lat="60.5912" lng="-152.6883" station="RDDF" channel="BHZ" network="AV" location="--" type="BB"/>
<marker lat="60.5843" lng="-152.5887" station="RDDR" channel="EHZ" network="AV" location="--" type="SP"/>
<marker lat="60.5905" lng="-152.8058" station="RDJH" channel="BHZ" network="AV" location="--" type="BB"/>
<marker lat="60.5224" lng="-152.7401" station="RDN" channel="EHZ" network="AV" location="--" type="SP"/>
<marker lat="60.4536" lng="-152.7430" station="RDSO" channel="BHZ" network="AV" location="--" type="BB"/>
<marker lat="60.5726" lng="-152.4075" station="RDT" channel="EHZ" network="AV" location="--" type="SP"/>
<marker lat="60.4875" lng="-152.8425" station="RDWB" channel="BHZ" network="AV" location="--" type="BB"/>
<marker lat="60.4196" lng="-152.7742" station="RED" channel="EHZ" network="AV" location="--" type="SP"/>
<marker lat="60.4196" lng="-152.7742" station="RED" channel="BHZ" network="AV" location="--" type="BB"/>
<marker lat="60.4888" lng="-152.6940" station="REF" channel="EHZ" network="AV" location="--" type="SP"/>
<marker lat="60.4616" lng="-152.7560" station="RSO" channel="EHZ" network="AV" location="--" type="SP"/>
<marker lat="61.2591" lng="-152.3722" station="SPBG" channel="BHZ" network="AV" location="--" type="BB"/>
<marker lat="61.2913" lng="-152.0228" station="SPCG" channel="BHZ" network="AV" location="--" type="BB"/>
<marker lat="61.2244" lng="-152.1854" station="SPCN" channel="BHZ" network="AV" location="--" type="BB"/>
<marker lat="61.2655" lng="-152.1550" station="SPCP" channel="BHZ" network="AV" location="--" type="BB"/>
<marker lat="61.2003" lng="-152.2091" station="SPCR" channel="BHZ" network="AV" location="--" type="BB"/>
<marker lat="61.3662" lng="-152.7012" station="SPNN" channel="BHZ" network="AV" location="--" type="BB"/>
<marker lat="61.1811" lng="-152.0566" station="SPU" channel="EHZ" network="AV" location="--" type="SP"/>
<marker lat="61.2728" lng="-152.5614" station="SPWE" channel="EHZ" network="AV" location="--" type="SP"/>
<marker lat="54.7718" lng="-164.1265" station="SSBA" channel="BHZ" network="AV" location="--" type="BB"/>
<marker lat="54.8109" lng="-163.9979" station="SSLN" channel="EHZ" network="AV" location="--" type="SP"/>
<marker lat="54.7111" lng="-164.0008" station="SSLS" channel="EHZ" network="AV" location="--" type="SP"/>
<marker lat="54.7709" lng="-164.1234" station="SSLW" channel="EHZ" network="AV" location="--" type="SP"/>
<marker lat="61.4982" lng="-151.8349" station="STLK" channel="EHZ" network="AV" location="--" type="SP"/>
<marker lat="58.6094" lng="-152.3935" station="SYI" channel="EHZ" network="AV" location="--" type="SP"/>
<marker lat="51.7555" lng="-177.8998" station="TAFL" channel="EHZ" network="AV" location="--" type="SP"/>
<marker lat="51.8990" lng="-177.9853" station="TAFP" channel="EHZ" network="AV" location="--" type="SP"/>
<marker lat="51.8144" lng="-177.8148" station="TAPA" channel="EHZ" network="AV" location="--" type="SP"/>
<marker lat="51.8339" lng="-178.0390" station="TASE" channel="EHZ" network="AV" location="--" type="SP"/>
<marker lat="56.2849" lng="-159.5532" station="VNFG" channel="EHZ" network="AV" location="--" type="SP"/>
<marker lat="56.2203" lng="-159.1663" station="VNHG" channel="EHZ" network="AV" location="--" type="SP"/>
<marker lat="56.0304" lng="-159.3699" station="VNKR" channel="EHZ" network="AV" location="--" type="SP"/>
<marker lat="56.2829" lng="-159.3181" station="VNNF" channel="EHZ" network="AV" location="--" type="SP"/>
<marker lat="56.1250" lng="-159.0875" station="VNSG" channel="EHZ" network="AV" location="--" type="SP"/>
<marker lat="56.2259" lng="-159.4569" station="VNSS" channel="EHZ" network="AV" location="--" type="SP"/>
<marker lat="56.0712" lng="-159.5606" station="VNSW" channel="EHZ" network="AV" location="--" type="SP"/>
<marker lat="56.1509" lng="-159.5643" station="VNWF" channel="EHZ" network="AV" location="--" type="SP"/>
<marker lat="54.5902" lng="-164.7550" station="WEBT" channel="EHZ" network="AV" location="--" type="SP"/>
<marker lat="54.5300" lng="-164.7796" station="WECS" channel="EHZ" network="AV" location="--" type="SP"/>
<marker lat="54.4723" lng="-164.5860" station="WESE" channel="EHZ" network="AV" location="--" type="SP"/>
<marker lat="54.5761" lng="-164.5804" station="WESN" channel="EHZ" network="AV" location="--" type="SP"/>
<marker lat="54.4926" lng="-164.7233" station="WESP" channel="EHZ" network="AV" location="--" type="SP"/>
<marker lat="54.8466" lng="-164.3873" station="WTUG" channel="EHZ" network="AV" location="--" type="SP"/>
<marker lat="54.0907" lng="-165.9800" station="ZRO" channel="EHZ" network="AV" location="--" type="SP"/>
<marker lat="54.8192" lng="-159.5906" station="CHN" channel="EHZ" network="AK" location="--" type="SP"/>
<marker lat="54.9775" lng="-160.1402" station="NAG" channel="EHZ" network="AK" location="--" type="SP"/>
<marker lat="60.5117" lng="-150.2231" station="SLK" channel="EHZ" network="AK" location="--" type="SP"/>
<marker lat="54.1352" lng="-165.7719" station="AKUT" channel="BHZ" network="AT" location="--" type="BB"/>
<marker lat="56.3014" lng="-158.4142" station="CHGN" channel="BHZ" network="AT" location="--" type="BB"/>
<marker lat="57.2225" lng="-153.2875" station="OHAK" channel="BHZ" network="AT" location="--" type="BB"/>
<marker lat="55.3493" lng="-160.4766" station="SDPT" channel="BHZ" network="AT" location="--" type="BB"/>
<marker lat="61.1082" lng="-155.6217" station="SVW2" channel="BHZ" network="AT" location="--" type="BB"/>
<marker lat="62.9301" lng="-156.0116" station="TTA" channel="BHZ" network="AT" location="--" type="BB"/>
<marker lat="52.2016" lng="-174.1975" station="ATKA" channel="BHZ" network="AK" location="--" type="BB"/>
<marker lat="59.7511" lng="-150.9063" station="BRLK" channel="BHZ" network="AK" location="--" type="BB"/>
<marker lat="63.4188" lng="-152.0844" station="CAST" channel="BHZ" network="AK" location="--" type="BB"/>
<marker lat="55.8218" lng="-155.6225" station="CHI" channel="BHZ" network="AK" location="--" type="BB"/>
<marker lat="59.5251" lng="-151.2373" station="CNP" channel="BHZ" network="AK" location="--" type="BB"/>
<marker lat="54.8564" lng="-163.4175" station="FALS" channel="BHZ" network="AK" location="--" type="BB"/>
<marker lat="61.1656" lng="-150.1775" station="FIB" channel="BHZ" network="AK" location="--" type="BB"/>
<marker lat="59.6572" lng="-151.6515" station="HOM" channel="BHZ" network="AK" location="--" type="BB"/>
<marker lat="52.9721" lng="-168.8550" station="NIKH" channel="BHZ" network="AK" location="--" type="BB"/>
<marker lat="60.7425" lng="-151.2395" station="NKA" channel="BHZ" network="AK" location="--" type="BB"/>
<marker lat="62.8962" lng="-152.1894" station="PPLA" channel="BHZ" network="AK" location="--" type="BB"/>
<marker lat="56.5593" lng="-154.1842" station="SII" channel="BHZ" network="AK" location="--" type="BB"/>
<marker lat="61.9800" lng="-151.5317" station="SKN" channel="BHZ" network="AK" location="--" type="BB"/>
<marker lat="57.1766" lng="-170.2477" station="SPIA" channel="BHZ" network="AK" location="--" type="BB"/>
<marker lat="61.4636" lng="-150.7467" station="SSN" channel="BHZ" network="AK" location="--" type="BB"/>
<marker lat="62.3346" lng="-150.2461" station="TRAP" channel="EHZ" network="AK" location="--" type="SP"/>
<marker lat="63.4505" lng="-150.2896" station="TRF" channel="BHZ" network="AK" location="--" type="BB"/>
<marker lat="53.8456" lng="-166.5040" station="UNV" channel="BHZ" network="AK" location="--" type="BB"/>
</markers>
