<markers>
<marker lat="19.3731" lng="-155.2655" station="AHUD" channel="EHZ" network="HV" location="--" type="SP"/>
<marker lat="19.3709" lng="-155.4558" station="AIN" channel="EHZ" network="HV" location="--" type="SP"/>
<marker lat="19.4063" lng="-155.2628" station="BYL" channel="HWZ" network="HV" location="--" type="BB"/>
<marker lat="19.4915" lng="-155.9117" station="CAC" channel="EHZ" network="HV" location="--" type="SP"/>
<marker lat="19.3838" lng="-155.3256" station="CPKD" channel="EHZ" network="HV" location="--" type="SP"/>
<marker lat="19.3610" lng="-155.6629" station="DAND" channel="EHZ" network="HV" location="--" type="SP"/>
<marker lat="19.3284" lng="-155.3826" station="DESD" channel="EHZ" network="HV" location="--" type="SP"/>
<marker lat="19.4123" lng="-155.2379" station="ESR" channel="EHZ" network="HV" location="--" type="SP"/>
<marker lat="19.4141" lng="-155.2648" station="HAT" channel="HHZ" network="HV" location="--" type="BB"/>
<marker lat="19.2943" lng="-155.3053" station="HLPD" channel="HHZ" network="HV" location="--" type="BB"/>
<marker lat="19.7830" lng="-155.4540" station="HPU" channel="EHZ" network="HV" location="--" type="SP"/>
<marker lat="19.6107" lng="-155.4865" station="HSS" channel="EHZ" network="HV" location="--" type="SP"/>
<marker lat="19.2364" lng="-155.3952" station="HTCD" channel="EHZ" network="HV" location="--" type="SP"/>
<marker lat="19.6821" lng="-155.8378" station="HUA" channel="EHZ" network="HV" location="--" type="SP"/>
<marker lat="19.4184" lng="-154.9740" station="HULD" channel="HHZ" network="HV" location="--" type="BB"/>
<marker lat="19.3928" lng="-155.0988" station="JCUZ" channel="HHZ" network="HV" location="--" type="BB"/>
<marker lat="19.2705" lng="-155.8691" station="KAA" channel="EHZ" network="HV" location="--" type="SP"/>
<marker lat="19.2810" lng="-155.1300" station="KAED" channel="EHZ" network="HV" location="--" type="SP"/>
<marker lat="19.2519" lng="-155.6138" station="KHU" channel="EHZ" network="HV" location="--" type="SP"/>
<marker lat="19.5071" lng="-155.7655" station="KII" channel="EHZ" network="HV" location="--" type="SP"/>
<marker lat="19.3989" lng="-155.2697" station="KKO" channel="HWZ" network="HV" location="--" type="BB"/>
<marker lat="19.8779" lng="-155.3411" station="KKU" channel="EHZ" network="HV" location="--" type="SP"/>
<marker lat="19.4631" lng="-154.9194" station="KLU" channel="EHZ" network="HV" location="--" type="SP"/>
<marker lat="19.3714" lng="-155.1696" station="KNHD" channel="EHZ" network="HV" location="--" type="SP"/>
<marker lat="20.1308" lng="-155.7781" station="KOH" channel="EHZ" network="HV" location="--" type="SP"/>
<marker lat="19.3354" lng="-155.2908" station="KPN" channel="EHZ" network="HV" location="--" type="SP"/>
<marker lat="19.3933" lng="-155.0730" station="KUPD" channel="EHZ" network="HV" location="--" type="SP"/>
<marker lat="19.3397" lng="-155.2972" station="MITD" channel="EHZ" network="HV" location="--" type="SP"/>
<marker lat="19.4950" lng="-155.3894" station="MLOD" channel="HWZ" network="HV" location="--" type="BB"/>
<marker lat="19.4789" lng="-155.5986" station="MOK" channel="EHZ" network="HV" location="--" type="SP"/>
<marker lat="19.6931" lng="-155.0283" station="NAGD" channel="EHZ" network="HV" location="--" type="SP"/>
<marker lat="19.4067" lng="-155.2772" station="NPB" channel="HWZ" network="HV" location="--" type="BB"/>
<marker lat="19.3985" lng="-155.1123" station="NPOC" channel="HHZ" network="HV" location="--" type="BB"/>
<marker lat="19.4089" lng="-155.2805" station="NPT" channel="HWZ" network="HV" location="--" type="BB"/>
<marker lat="19.4212" lng="-155.2857" station="OBL" channel="HWZ" network="HV" location="--" type="BB"/>
<marker lat="19.3923" lng="-155.2762" station="OTLD" channel="EHZ" network="HV" location="--" type="SP"/>
<marker lat="19.1577" lng="-155.7657" station="OVED" channel="EHZ" network="HV" location="--" type="SP"/>
<marker lat="19.3692" lng="-155.2124" station="PAUD" channel="HWZ" network="HV" location="--" type="BB"/>
<marker lat="19.5347" lng="-155.4559" station="PLAD" channel="EHZ" network="HV" location="--" type="SP"/>
<marker lat="19.2799" lng="-155.2226" station="POLD" channel="EHZ" network="HV" location="--" type="SP"/>
<marker lat="19.1479" lng="-155.4615" station="PPLD" channel="EHZ" network="HV" location="--" type="SP"/>
<marker lat="19.4029" lng="-155.6309" station="RCOD" channel="EHZ" network="HV" location="--" type="SP"/>
<marker lat="19.3879" lng="-155.2752" station="RIMD" channel="EHZ" network="HV" location="--" type="SP"/>
<marker lat="19.4242" lng="-155.2720" station="SBL" channel="HHZ" network="HV" location="--" type="BB"/>
<marker lat="19.3983" lng="-155.2941" station="SDH" channel="HWZ" network="HV" location="--" type="BB"/>
<marker lat="18.9794" lng="-155.6694" station="SPDD" channel="EHZ" network="HV" location="--" type="SP"/>
<marker lat="19.4017" lng="-155.2785" station="SRM" channel="HHZ" network="HV" location="--" type="BB"/>
<marker lat="19.3942" lng="-155.1252" station="STCD" channel="HWZ" network="HV" location="--" type="BB"/>
<marker lat="19.4515" lng="-155.6030" station="SWR" channel="EHZ" network="HV" location="--" type="SP"/>
<marker lat="19.4116" lng="-155.5438" station="TRAD" channel="EHZ" network="HV" location="--" type="SP"/>
<marker lat="19.4205" lng="-155.2888" station="UUG" channel="EHZ" network="HV" location="--" type="SP"/>
<marker lat="19.4263" lng="-155.2789" station="UWB" channel="HHZ" network="HV" location="--" type="BB"/>
<marker lat="19.4199" lng="-155.2912" station="UWE" channel="TLT" network="HV" location="--" type="SP"/>
<marker lat="19.8652" lng="-155.6563" station="WAI" channel="EHZ" network="HV" location="--" type="SP"/>
<marker lat="19.4718" lng="-155.5803" station="WIL" channel="EHZ" network="HV" location="--" type="SP"/>
<marker lat="19.2502" lng="-155.5008" station="WOOD" channel="EHZ" network="HV" location="--" type="SP"/>
<marker lat="19.3986" lng="-155.2974" station="WRM" channel="HHZ" network="HV" location="--" type="BB"/>
</markers>
