<?xml version="1.0" encoding="UTF-8"?>
<markers>
	<!-- created by css2volcxml from database: /avort/oprun/dbmaster/master_stations on  9/21/2011  20:26:44.437 UTC -->
<marker lat="56.2211" lng="-159.1642" station="VNHG" channel="SHZ" network="AV" location="--" type="BB"/>
<marker lat="56.2211" lng="-159.1642" station="VNHG" channel="EHZ" network="AV" location="--" type="BB"/>
<marker lat="56.0312" lng="-159.3678" station="VNKR" channel="SHZ" network="AV" location="--" type="BB"/>
<marker lat="56.0312" lng="-159.3678" station="VNKR" channel="EHZ" network="AV" location="--" type="BB"/>
<marker lat="56.1258" lng="-159.0854" station="VNSG" channel="SHZ" network="AV" location="--" type="BB"/>
<marker lat="56.1258" lng="-159.0854" station="VNSG" channel="EHZ" network="AV" location="--" type="BB"/>
<marker lat="56.2267" lng="-159.4548" station="VNSS" channel="SHZ" network="AV" location="--" type="BB"/>
<marker lat="56.2267" lng="-159.4548" station="VNSS" channel="EHZ" network="AV" location="--" type="BB"/>
<marker lat="56.2857" lng="-159.5511" station="VNFG" channel="SHZ" network="AV" location="--" type="BB"/>
<marker lat="56.2857" lng="-159.5511" station="VNFG" channel="EHZ" network="AV" location="--" type="BB"/>
<marker lat="56.2837" lng="-159.3160" station="VNNF" channel="SHZ" network="AV" location="--" type="BB"/>
<marker lat="56.2837" lng="-159.3160" station="VNNF" channel="EHZ" network="AV" location="--" type="BB"/>
<marker lat="56.0720" lng="-159.5585" station="VNSW" channel="SHZ" network="AV" location="--" type="BB"/>
<marker lat="56.0720" lng="-159.5585" station="VNSW" channel="EHZ" network="AV" location="--" type="BB"/>
<marker lat="56.1517" lng="-159.5622" station="VNWF" channel="SHZ" network="AV" location="--" type="BB"/>
<marker lat="56.1517" lng="-159.5622" station="VNWF" channel="EHZ" network="AV" location="--" type="BB"/>
</markers>
