<?xml version="1.0" encoding="UTF-8"?>
<markers>
	<!-- created by css2volcxml from database: /avort/oprun/dbmaster/master_stations on  9/22/2011  22:02:15.454 UTC -->
<marker lat="58.2107" lng="-155.3260" station="ACH" channel="EHZ" network="AV" location="--" type="SP"/>
<marker lat="51.9802" lng="-176.6017" station="ADAG" channel="EHZ" network="AV" location="--" type="SP"/>
<marker lat="54.1153" lng="-165.8157" station="AHB" channel="EHZ" network="AV" location="--" type="SP"/>
<marker lat="54.1104" lng="-165.6967" station="AKS" channel="EHZ" network="AV" location="--" type="SP"/>
<marker lat="54.1262" lng="-165.9627" station="AKV" channel="EHZ" network="AV" location="--" type="SP"/>
<marker lat="58.1988" lng="-155.4940" station="ANCK" channel="EHZ" network="AV" location="--" type="SP"/>
<marker lat="56.9127" lng="-158.0589" station="ANNE" channel="EHZ" network="AV" location="--" type="SP"/>
<marker lat="56.9664" lng="-158.2149" station="ANNW" channel="EHZ" network="AV" location="--" type="SP"/>
<marker lat="56.9198" lng="-158.1716" station="ANON" channel="EHZ" network="AV" location="--" type="SP"/>
<marker lat="56.8024" lng="-158.2808" station="ANPB" channel="EHZ" network="AV" location="--" type="SP"/>
<marker lat="56.8417" lng="-158.1262" station="ANPK" channel="EHZ" network="AV" location="--" type="SP"/>
<marker lat="59.3718" lng="-153.3751" station="AUE" channel="EHZ" network="AV" location="--" type="SP"/>
<marker lat="59.3638" lng="-153.4430" station="AUH" channel="EHZ" network="AV" location="--" type="SP"/>
<marker lat="59.3352" lng="-153.4277" station="AUI" channel="EHZ" network="AV" location="--" type="SP"/>
<marker lat="59.3634" lng="-153.4202" station="AUP" channel="EHZ" network="AV" location="--" type="SP"/>
<marker lat="59.3701" lng="-153.4708" station="AUW" channel="EHZ" network="AV" location="--" type="SP"/>
<marker lat="61.2669" lng="-152.3890" station="BGL" channel="EHZ" network="AV" location="--" type="SP"/>
<marker lat="59.3927" lng="-155.2292" station="BGM" channel="EHZ" network="AV" location="--" type="SP"/>
<marker lat="60.7575" lng="-152.4177" station="BGR" channel="EHZ" network="AV" location="--" type="SP"/>
<marker lat="61.0702" lng="-152.2626" station="BKG" channel="EHZ" network="AV" location="--" type="SP"/>
<marker lat="55.1945" lng="-162.7836" station="BLDY" channel="EHZ" network="AV" location="--" type="SP"/>
<marker lat="55.7038" lng="-162.0651" station="BLHA" channel="EHZ" network="AV" location="--" type="SP"/>
<marker lat="54.6455" lng="-163.7408" station="BRPK" channel="EHZ" network="AV" location="--" type="SP"/>
<marker lat="58.0525" lng="-155.3015" station="CAHL" channel="EHZ" network="AV" location="--" type="SP"/>
<marker lat="58.9296" lng="-153.6426" station="CDD" channel="EHZ" network="AV" location="--" type="SP"/>
<marker lat="61.3077" lng="-152.0067" station="CGL" channel="EHZ" network="AV" location="--" type="SP"/>
<marker lat="54.8200" lng="-159.5886" station="CHN" channel="EHZ" network="AK" location="--" type="SP"/>
<marker lat="61.1964" lng="-152.3378" station="CKL" channel="EHZ" network="AV" location="--" type="SP"/>
<marker lat="61.2240" lng="-152.1815" station="CKN" channel="EHZ" network="AV" location="--" type="SP"/>
<marker lat="61.2008" lng="-152.2062" station="CKT" channel="EHZ" network="AV" location="--" type="SP"/>
<marker lat="58.2645" lng="-155.8837" station="CNTC" channel="EHZ" network="AV" location="--" type="SP"/>
<marker lat="61.2642" lng="-152.2418" station="CP2" channel="EHZ" network="AV" location="--" type="SP"/>
<marker lat="61.2670" lng="-152.1555" station="CRP" channel="EHZ" network="AV" location="--" type="SP"/>
<marker lat="62.4066" lng="-150.2606" station="CUT" channel="EHZ" network="AK" location="--" type="SP"/>
<marker lat="60.5919" lng="-152.6860" station="DFR" channel="EHZ" network="AV" location="--" type="SP"/>
<marker lat="55.1493" lng="-161.8614" station="DOL" channel="EHZ" network="AV" location="--" type="SP"/>
<marker lat="54.9669" lng="-162.2611" station="DRR3" channel="EHZ" network="AV" location="--" type="SP"/>
<marker lat="55.1071" lng="-162.2781" station="DT1" channel="EHZ" network="AV" location="--" type="SP"/>
<marker lat="55.1457" lng="-162.2570" station="DTN" channel="EHZ" network="AV" location="--" type="SP"/>
<marker lat="51.8619" lng="-176.4059" station="ETKA" channel="EHZ" network="AV" location="--" type="SP"/>
<marker lat="61.1892" lng="-149.8002" station="GOU" channel="EHZ" network="AK" location="--" type="SP"/>
<marker lat="52.0119" lng="-176.1620" station="GSCK" channel="EHZ" network="AV" location="--" type="SP"/>
<marker lat="51.9864" lng="-175.9250" station="GSIG" channel="EHZ" network="AV" location="--" type="SP"/>
<marker lat="52.0432" lng="-176.0563" station="GSMY" channel="EHZ" network="AV" location="--" type="SP"/>
<marker lat="52.0928" lng="-176.1757" station="GSSP" channel="EHZ" network="AV" location="--" type="SP"/>
<marker lat="52.0559" lng="-176.1448" station="GSTD" channel="EHZ" network="AV" location="--" type="SP"/>
<marker lat="52.0943" lng="-176.0591" station="GSTR" channel="EHZ" network="AV" location="--" type="SP"/>
<marker lat="55.3178" lng="-161.9025" station="HAG" channel="EHZ" network="AV" location="--" type="SP"/>
<marker lat="54.1868" lng="-165.9124" station="HSB" channel="EHZ" network="AV" location="--" type="SP"/>
<marker lat="60.0813" lng="-152.9584" station="ILI" channel="EHZ" network="AV" location="--" type="SP"/>
<marker lat="59.9576" lng="-153.0681" station="ILS" channel="EHZ" network="AV" location="--" type="SP"/>
<marker lat="60.0598" lng="-153.1370" station="ILW" channel="EHZ" network="AV" location="--" type="SP"/>
<marker lat="60.0608" lng="-153.0625" station="INE" channel="EHZ" network="AV" location="--" type="SP"/>
<marker lat="54.8323" lng="-163.7784" station="ISNN" channel="EHZ" network="AV" location="--" type="SP"/>
<marker lat="60.0169" lng="-153.0163" station="IVE" channel="EHZ" network="AV" location="--" type="SP"/>
<marker lat="60.0092" lng="-153.0808" station="IVS" channel="EHZ" network="AV" location="--" type="SP"/>
<marker lat="58.1312" lng="-154.9692" station="KABR" channel="EHZ" network="AV" location="--" type="SP"/>
<marker lat="58.6490" lng="-155.0060" station="KAHC" channel="EHZ" network="AV" location="--" type="SP"/>
<marker lat="58.4940" lng="-154.5463" station="KAHG" channel="EHZ" network="AV" location="--" type="SP"/>
<marker lat="58.4850" lng="-155.0458" station="KAIC" channel="EHZ" network="AV" location="--" type="SP"/>
<marker lat="58.5968" lng="-154.3468" station="KAPH" channel="EHZ" network="AV" location="--" type="SP"/>
<marker lat="58.4978" lng="-154.7033" station="KARR" channel="EHZ" network="AV" location="--" type="SP"/>
<marker lat="58.3837" lng="-154.7992" station="KAWH" channel="EHZ" network="AV" location="--" type="SP"/>
<marker lat="58.2750" lng="-155.2017" station="KBM" channel="EHZ" network="AV" location="--" type="SP"/>
<marker lat="58.2433" lng="-155.1833" station="KCE" channel="EHZ" network="AV" location="--" type="SP"/>
<marker lat="58.3076" lng="-155.1114" station="KCG" channel="EHZ" network="AV" location="--" type="SP"/>
<marker lat="58.4400" lng="-155.7407" station="KEL" channel="EHZ" network="AV" location="--" type="SP"/>
<marker lat="51.9189" lng="-177.1953" station="KICM" channel="EHZ" network="AV" location="--" type="SP"/>
<marker lat="51.8788" lng="-177.1704" station="KIKV" channel="EHZ" network="AV" location="--" type="SP"/>
<marker lat="51.7616" lng="-177.2349" station="KIMD" channel="EHZ" network="AV" location="--" type="SP"/>
<marker lat="51.9314" lng="-177.1276" station="KINC" channel="EHZ" network="AV" location="--" type="SP"/>
<marker lat="51.8996" lng="-177.0935" station="KIRH" channel="EHZ" network="AV" location="--" type="SP"/>
<marker lat="51.8531" lng="-177.1508" station="KIWB" channel="EHZ" network="AV" location="--" type="SP"/>
<marker lat="58.0540" lng="-155.5732" station="KJL" channel="EHZ" network="AV" location="--" type="SP"/>
<marker lat="58.3817" lng="-155.2950" station="KVT" channel="EHZ" network="AV" location="--" type="SP"/>
<marker lat="54.1609" lng="-166.0337" station="LVA" channel="EHZ" network="AV" location="--" type="SP"/>
<marker lat="53.9514" lng="-166.8922" station="MCIR" channel="EHZ" network="AV" location="--" type="SP"/>
<marker lat="58.1343" lng="-155.1608" station="MGLS" channel="EHZ" network="AV" location="--" type="SP"/>
<marker lat="53.7947" lng="-166.8760" station="MGOD" channel="EHZ" network="AV" location="--" type="SP"/>
<marker lat="59.1849" lng="-154.3394" station="MMN" channel="EHZ" network="AV" location="--" type="SP"/>
<marker lat="53.8838" lng="-166.6836" station="MNAT" channel="EHZ" network="AV" location="--" type="SP"/>
<marker lat="53.8163" lng="-166.9364" station="MSOM" channel="EHZ" network="AV" location="--" type="SP"/>
<marker lat="60.4888" lng="-149.3611" station="MSP" channel="EHZ" network="AK" location="--" type="SP"/>
<marker lat="53.9689" lng="-166.6793" station="MTBL" channel="EHZ" network="AV" location="--" type="SP"/>
<marker lat="54.9783" lng="-160.1382" station="NAG" channel="EHZ" network="AK" location="--" type="SP"/>
<marker lat="61.4037" lng="-152.1567" station="NCG" channel="EHZ" network="AV" location="--" type="SP"/>
<marker lat="64.5799" lng="-149.0766" station="NEA" channel="EHZ" network="AK" location="--" type="SP"/>
<marker lat="60.7430" lng="-151.2379" station="NKA" channel="EHZ" network="AK" location="--" type="SP"/>
<marker lat="60.0434" lng="-151.2914" station="NNL" channel="EHZ" network="AK" location="--" type="SP"/>
<marker lat="59.6532" lng="-153.2299" station="OPT" channel="EHZ" network="AV" location="--" type="SP"/>
<marker lat="55.4337" lng="-161.9952" station="PN7A" channel="EHZ" network="AV" location="--" type="SP"/>
<marker lat="55.4220" lng="-161.7404" station="PS1A" channel="EHZ" network="AV" location="--" type="SP"/>
<marker lat="55.4536" lng="-161.9850" station="PV6" channel="EHZ" network="AV" location="--" type="SP"/>
<marker lat="55.3740" lng="-161.7899" station="PVV" channel="EHZ" network="AV" location="--" type="SP"/>
<marker lat="60.5230" lng="-152.7379" station="RDN" channel="EHZ" network="AV" location="--" type="SP"/>
<marker lat="60.5732" lng="-152.4052" station="RDT" channel="EHZ" network="AV" location="--" type="SP"/>
<marker lat="60.4892" lng="-152.6917" station="REF" channel="EHZ" network="AV" location="--" type="SP"/>
<marker lat="60.4622" lng="-152.7538" station="RSO" channel="EHZ" network="AV" location="--" type="SP"/>
<marker lat="60.5123" lng="-150.2209" station="SLK" channel="EHZ" network="AK" location="--" type="SP"/>
<marker lat="61.1817" lng="-152.0543" station="SPU" channel="EHZ" network="AV" location="--" type="SP"/>
<marker lat="54.8118" lng="-163.9959" station="SSLN" channel="EHZ" network="AV" location="--" type="SP"/>
<marker lat="54.7120" lng="-163.9988" station="SSLS" channel="EHZ" network="AV" location="--" type="SP"/>
<marker lat="54.7718" lng="-164.1214" station="SSLW" channel="EHZ" network="AV" location="--" type="SP"/>
<marker lat="61.4988" lng="-151.8327" station="STLK" channel="EHZ" network="AV" location="--" type="SP"/>
<marker lat="58.6100" lng="-152.3907" station="SYI" channel="EHZ" network="AV" location="--" type="SP"/>
<marker lat="61.1320" lng="-146.3346" station="VLZ" channel="EHZ" network="AK" location="--" type="SP"/>
<marker lat="60.9966" lng="-150.4307" station="VOGL" channel="EHZ" network="AK" location="--" type="SP"/>
<marker lat="61.9863" lng="-144.3284" station="WACK" channel="EHZ" network="AV" location="--" type="SP"/>
<marker lat="62.0032" lng="-144.0699" station="WANC" channel="EHZ" network="AV" location="--" type="SP"/>
<marker lat="61.9282" lng="-144.1724" station="WASW" channel="EHZ" network="AV" location="--" type="SP"/>
<marker lat="62.0751" lng="-144.1522" station="WAZA" channel="EHZ" network="AV" location="--" type="SP"/>
<marker lat="54.4732" lng="-164.5840" station="WESE" channel="EHZ" network="AV" location="--" type="SP"/>
<marker lat="54.5724" lng="-164.5784" station="WESN" channel="EHZ" network="AV" location="--" type="SP"/>
<marker lat="54.8475" lng="-164.3853" station="WTUG" channel="EHZ" network="AV" location="--" type="SP"/>
<marker lat="54.0916" lng="-165.9780" station="ZRO" channel="EHZ" network="AV" location="--" type="SP"/>
<marker lat="56.2211" lng="-159.1642" station="VNHG" channel="EHZ" network="AV" location="--" type="SP"/>
<marker lat="56.0312" lng="-159.3678" station="VNKR" channel="EHZ" network="AV" location="--" type="SP"/>
<marker lat="56.1258" lng="-159.0854" station="VNSG" channel="EHZ" network="AV" location="--" type="SP"/>
<marker lat="56.2267" lng="-159.4548" station="VNSS" channel="EHZ" network="AV" location="--" type="SP"/>
<marker lat="0.0000" lng="0.0000" station="TEST" channel="EHZ" network="AK" location="--" type="SP"/>
<marker lat="56.2857" lng="-159.5511" station="VNFG" channel="EHZ" network="AV" location="--" type="SP"/>
<marker lat="56.2837" lng="-159.3160" station="VNNF" channel="EHZ" network="AV" location="--" type="SP"/>
<marker lat="56.0720" lng="-159.5585" station="VNSW" channel="EHZ" network="AV" location="--" type="SP"/>
<marker lat="56.1517" lng="-159.5622" station="VNWF" channel="EHZ" network="AV" location="--" type="SP"/>
<marker lat="56.8954" lng="-158.2307" station="AZAC" channel="EHZ" network="AV" location="--" type="SP"/>
<marker lat="56.5897" lng="-158.4526" station="BPBC" channel="EHZ" network="AV" location="--" type="SP"/>
<marker lat="53.3958" lng="-168.1362" station="OKCF" channel="EHZ" network="AV" location="--" type="SP"/>
<marker lat="53.4546" lng="-168.0493" station="OKER" channel="EHZ" network="AV" location="--" type="SP"/>
<marker lat="53.4774" lng="-167.8162" station="OKID" channel="EHZ" network="AV" location="--" type="SP"/>
<marker lat="53.5202" lng="-168.1641" station="OKRE" channel="EHZ" network="AV" location="--" type="SP"/>
<marker lat="53.2526" lng="-168.2905" station="OKSP" channel="EHZ" network="AV" location="--" type="SP"/>
<marker lat="53.3839" lng="-168.0411" station="OKTU" channel="EHZ" network="AV" location="--" type="SP"/>
<marker lat="53.4721" lng="-168.2398" station="OKWE" channel="EHZ" network="AV" location="--" type="SP"/>
<marker lat="53.4347" lng="-168.2056" station="OKWR" channel="EHZ" network="AV" location="--" type="SP"/>
<marker lat="51.5545" lng="-178.8121" station="GAKI" channel="EHZ" network="AV" location="--" type="SP"/>
<marker lat="51.7617" lng="-178.7715" station="GALA" channel="EHZ" network="AV" location="--" type="SP"/>
<marker lat="51.8189" lng="-178.7767" station="GANE" channel="EHZ" network="AV" location="--" type="SP"/>
<marker lat="51.7830" lng="-178.7468" station="GAEA" channel="EHZ" network="AV" location="--" type="SP"/>
<marker lat="51.8203" lng="-178.8038" station="GANO" channel="EHZ" network="AV" location="--" type="SP"/>
<marker lat="51.7789" lng="-178.8546" station="GASW" channel="EHZ" network="AV" location="--" type="SP"/>
<marker lat="51.8155" lng="-177.8128" station="TAPA" channel="EHZ" network="AV" location="--" type="SP"/>
<marker lat="51.7566" lng="-177.8978" station="TAFL" channel="EHZ" network="AV" location="--" type="SP"/>
<marker lat="51.8632" lng="-178.1394" station="TACS" channel="EHZ" network="AV" location="--" type="SP"/>
<marker lat="51.8350" lng="-178.0370" station="TASE" channel="EHZ" network="AV" location="--" type="SP"/>
<marker lat="51.9157" lng="-178.1208" station="TANO" channel="EHZ" network="AV" location="--" type="SP"/>
<marker lat="51.9001" lng="-177.9833" station="TAFP" channel="EHZ" network="AV" location="--" type="SP"/>
<marker lat="53.8105" lng="-166.7456" station="MREP" channel="EHZ" network="AV" location="--" type="SP"/>
<marker lat="61.2734" lng="-152.5591" station="SPWE" channel="EHZ" network="AV" location="--" type="SP"/>
<marker lat="57.6998" lng="-156.8189" station="PLBL" channel="EHZ" network="AV" location="--" type="SP"/>
<marker lat="57.8019" lng="-156.6072" station="PLK1" channel="EHZ" network="AV" location="--" type="SP"/>
<marker lat="57.7642" lng="-156.3243" station="PLK2" channel="EHZ" network="AV" location="--" type="SP"/>
<marker lat="57.6887" lng="-156.2674" station="PLK3" channel="EHZ" network="AV" location="--" type="SP"/>
<marker lat="57.6321" lng="-156.3577" station="PLK4" channel="EHZ" network="AV" location="--" type="SP"/>
<marker lat="57.9977" lng="-156.8777" station="PLK5" channel="EHZ" network="AV" location="--" type="SP"/>
<marker lat="58.0449" lng="-156.3413" station="PLWL" channel="EHZ" network="AV" location="--" type="SP"/>
<marker lat="52.2751" lng="-174.0972" station="KOFP" channel="EHZ" network="AV" location="--" type="SP"/>
<marker lat="52.3614" lng="-174.1653" station="KOKV" channel="EHZ" network="AV" location="--" type="SP"/>
<marker lat="52.3232" lng="-174.2002" station="KOKL" channel="EHZ" network="AV" location="--" type="SP"/>
<marker lat="52.3936" lng="-174.1193" station="KONE" channel="EHZ" network="AV" location="--" type="SP"/>
<marker lat="52.3965" lng="-174.2105" station="KONW" channel="EHZ" network="AV" location="--" type="SP"/>
<marker lat="52.3458" lng="-174.0485" station="KOSE" channel="EHZ" network="AV" location="--" type="SP"/>
<marker lat="52.3657" lng="-174.2507" station="KOWE" channel="EHZ" network="AV" location="--" type="SP"/>
<marker lat="53.4123" lng="-168.3580" station="OKAK" channel="EHZ" network="AV" location="--" type="SP"/>
<marker lat="59.3782" lng="-153.4768" station="AUNW" channel="EHZ" network="AV" location="--" type="SP"/>
<marker lat="58.7580" lng="-153.4739" station="FOPK" channel="EHZ" network="AV" location="--" type="SP"/>
<marker lat="58.7994" lng="-153.6945" station="FOSS" channel="EHZ" network="AV" location="--" type="SP"/>
<marker lat="58.8348" lng="-153.9184" station="FONW" channel="EHZ" network="AV" location="--" type="SP"/>
<marker lat="54.7260" lng="-163.7110" station="ISLZ" channel="EHZ" network="AV" location="--" type="SP"/>
<marker lat="54.5911" lng="-164.7530" station="WEBT" channel="EHZ" network="AV" location="--" type="SP"/>
<marker lat="54.5309" lng="-164.7776" station="WECS" channel="EHZ" network="AV" location="--" type="SP"/>
<marker lat="54.4935" lng="-164.7213" station="WESP" channel="EHZ" network="AV" location="--" type="SP"/>
<marker lat="55.3469" lng="-161.8539" station="PS4A" channel="EHZ" network="AV" location="--" type="SP"/>
<marker lat="59.7848" lng="-154.1895" station="PDB" channel="EHZ" network="AV" location="--" type="SP"/>
<marker lat="60.5849" lng="-152.5863" station="RDDR" channel="EHZ" network="AV" location="--" type="SP"/>
<marker lat="59.3500" lng="-153.4085" station="AUJK" channel="EHZ" network="AV" location="--" type="SP"/>
<marker lat="54.1352" lng="-165.7719" station="AKUT" channel="BHZ" network="AT" location="--" type="BB"/>
<marker lat="56.3014" lng="-158.4142" station="CHGN" channel="BHZ" network="AT" location="--" type="BB"/>
<marker lat="55.4689" lng="-133.1230" station="CRAG" channel="BHZ" network="AT" location="--" type="BB"/>
<marker lat="62.9380" lng="-143.7194" station="MENT" channel="BHZ" network="AT" location="--" type="BB"/>
<marker lat="59.4278" lng="-146.3388" station="MID" channel="BHZ" network="AT" location="--" type="BB"/>
<marker lat="57.2225" lng="-153.2875" station="OHAK" channel="BHZ" network="AT" location="--" type="BB"/>
<marker lat="61.5922" lng="-149.1308" station="PMR" channel="BHZ" network="AT" location="--" type="BB"/>
<marker lat="55.3493" lng="-160.4766" station="SDPT" channel="BHZ" network="AT" location="--" type="BB"/>
<marker lat="57.0569" lng="-135.3244" station="SIT" channel="BHZ" network="AT" location="--" type="BB"/>
<marker lat="59.4601" lng="-135.3290" station="SKAG" channel="BHZ" network="AT" location="--" type="BB"/>
<marker lat="52.7308" lng="174.1031" station="SMY" channel="BHZ" network="AT" location="--" type="BB"/>
<marker lat="61.1082" lng="-155.6217" station="SVW2" channel="BHZ" network="AT" location="--" type="BB"/>
<marker lat="62.9301" lng="-156.0116" station="TTA" channel="BHZ" network="AT" location="--" type="BB"/>
<marker lat="59.5121" lng="-139.6710" station="YKU2" channel="BHZ" network="AT" location="--" type="BB"/>
<marker lat="64.8736" lng="-147.8616" station="COLA" channel="BHZ" network="AK" location="--" type="BB"/>
<marker lat="54.0984" lng="-165.9318" station="AKBB" channel="BHZ" network="AV" location="--" type="BB"/>
<marker lat="54.1988" lng="-165.9916" station="AKGG" channel="BHZ" network="AV" location="--" type="BB"/>
<marker lat="54.1627" lng="-165.9556" station="AKLV" channel="BHZ" network="AV" location="--" type="BB"/>
<marker lat="54.0912" lng="-166.0106" station="AKMO" channel="BHZ" network="AV" location="--" type="BB"/>
<marker lat="54.1301" lng="-166.0688" station="AKRB" channel="BHZ" network="AV" location="--" type="BB"/>
<marker lat="54.1104" lng="-165.6967" station="AKSA" channel="BHZ" network="AV" location="--" type="BB"/>
<marker lat="51.3794" lng="179.3037" station="AMKA" channel="BHZ" network="AV" location="--" type="BB"/>
<marker lat="64.5653" lng="-165.3706" station="ANM" channel="BHZ" network="AK" location="--" type="BB"/>
<marker lat="52.2027" lng="-174.1955" station="ATKA" channel="BHZ" network="AK" location="--" type="BB"/>
<marker lat="59.3823" lng="-153.4403" station="AUL" channel="EHZ" network="AV" location="--" type="SP"/>
<marker lat="59.3823" lng="-153.4403" station="AUL" channel="BHZ" network="AV" location="--" type="BB"/>
<marker lat="61.0362" lng="-142.3442" station="BAL" channel="BHZ" network="AK" location="--" type="BB"/>
<marker lat="59.9538" lng="-139.6350" station="BCP" channel="BHZ" network="AK" location="--" type="BB"/>
<marker lat="58.5796" lng="-134.8543" station="BESE" channel="BHZ" network="AK" location="--" type="BB"/>
<marker lat="60.9682" lng="-144.6030" station="BMR" channel="BHZ" network="AK" location="--" type="BB"/>
<marker lat="64.1002" lng="-150.9848" station="BPAW" channel="BHZ" network="AK" location="--" type="BB"/>
<marker lat="59.7510" lng="-150.9063" station="BRLK" channel="BHZ" network="AK" location="--" type="BB"/>
<marker lat="64.1735" lng="-149.2963" station="BWN" channel="BHZ" network="AK" location="--" type="BB"/>
<marker lat="63.4193" lng="-152.0820" station="CAST" channel="BHZ" network="AK" location="--" type="BB"/>
<marker lat="64.6458" lng="-147.8031" station="CCB" channel="BHZ" network="AK" location="--" type="BB"/>
<marker lat="55.8225" lng="-155.6205" station="CHI" channel="BHZ" network="AK" location="--" type="BB"/>
<marker lat="63.8827" lng="-152.3147" station="CHUM" channel="BHZ" network="AK" location="--" type="BB"/>
<marker lat="59.5259" lng="-151.2349" station="CNP" channel="BHZ" network="AK" location="--" type="BB"/>
<marker lat="67.2274" lng="-150.2013" station="COLD" channel="BHZ" network="AK" location="--" type="BB"/>
<marker lat="60.7528" lng="-143.0906" station="CRQ" channel="BHZ" network="AK" location="--" type="BB"/>
<marker lat="60.9657" lng="-141.3382" station="CTG" channel="BHZ" network="AK" location="--" type="BB"/>
<marker lat="59.0910" lng="-138.2136" station="DCPH" channel="BHZ" network="AK" location="--" type="BB"/>
<marker lat="63.7870" lng="-145.8634" station="DDM" channel="BHZ" network="AK" location="--" type="BB"/>
<marker lat="63.0757" lng="-147.3737" station="DHY" channel="BHZ" network="AK" location="--" type="BB"/>
<marker lat="61.1297" lng="-145.7728" station="DIV" channel="BHZ" network="AK" location="--" type="BB"/>
<marker lat="63.6486" lng="-144.0674" station="DOT" channel="BHZ" network="AK" location="--" type="BB"/>
<marker lat="60.5493" lng="-145.7479" station="EYAK" channel="BHZ" network="AK" location="--" type="BB"/>
<marker lat="54.8573" lng="-163.4155" station="FALS" channel="BHZ" network="AK" location="--" type="BB"/>
<marker lat="61.1662" lng="-150.1753" station="FIB" channel="BHZ" network="AK" location="--" type="BB"/>
<marker lat="60.7282" lng="-146.5967" station="FID" channel="BHZ" network="AK" location="--" type="BB"/>
<marker lat="66.5660" lng="-145.2316" station="FYU" channel="BHZ" network="AK" location="--" type="BB"/>
<marker lat="63.7767" lng="-171.7008" station="GAMB" channel="BHZ" network="AK" location="--" type="BB"/>
<marker lat="61.7716" lng="-148.9238" station="GHO" channel="BHZ" network="AK" location="--" type="BB"/>
<marker lat="60.8797" lng="-147.0938" station="GLI" channel="BHZ" network="AK" location="--" type="BB"/>
<marker lat="64.4057" lng="-146.9407" station="HDA" channel="BHZ" network="AK" location="--" type="BB"/>
<marker lat="60.3965" lng="-146.5025" station="HIN" channel="BHZ" network="AK" location="--" type="BB"/>
<marker lat="60.3356" lng="-144.2604" station="HMT" channel="BHZ" network="AK" location="--" type="BB"/>
<marker lat="59.6578" lng="-151.6494" station="HOM" channel="BHZ" network="AK" location="--" type="BB"/>
<marker lat="58.2762" lng="-134.3831" station="JIS" channel="BHZ" network="AK" location="--" type="BB"/>
<marker lat="58.2709" lng="-155.2822" station="KABU" channel="BHZ" network="AV" location="--" type="BB"/>
<marker lat="59.9273" lng="-144.4168" station="KAI" channel="BHZ" network="AK" location="--" type="BB"/>
<marker lat="58.2970" lng="-155.0611" station="KAKN" channel="BHZ" network="AV" location="--" type="BB"/>
<marker lat="61.4930" lng="-145.9206" station="KLU" channel="BHZ" network="AK" location="--" type="BB"/>
<marker lat="61.4126" lng="-148.4553" station="KNK" channel="BHZ" network="AK" location="--" type="BB"/>
<marker lat="63.5532" lng="-150.9209" station="KTH" channel="BHZ" network="AK" location="--" type="BB"/>
<marker lat="63.7323" lng="-148.9349" station="MCK" channel="BHZ" network="AK" location="--" type="BB"/>
<marker lat="64.9588" lng="-148.2291" station="MDM" channel="BHZ" network="AK" location="--" type="BB"/>
<marker lat="65.0308" lng="-150.7392" station="MLY" channel="BHZ" network="AK" location="--" type="BB"/>
<marker lat="53.9155" lng="-166.7864" station="MSW" channel="EHZ" network="AV" location="--" type="SP"/>
<marker lat="53.9155" lng="-166.7864" station="MSW" channel="BHZ" network="AV" location="--" type="BB"/>
<marker lat="60.5631" lng="-152.9293" station="NCT" channel="EHZ" network="AV" location="--" type="SP"/>
<marker lat="60.5631" lng="-152.9293" station="NCT" channel="BHZ" network="AV" location="--" type="BB"/>
<marker lat="52.9731" lng="-168.8530" station="NIKH" channel="BHZ" network="AK" location="--" type="BB"/>
<marker lat="53.4570" lng="-168.1237" station="OKNC" channel="BHZ" network="AV" location="--" type="BB"/>
<marker lat="53.4270" lng="-168.1643" station="OKCE" channel="BHZ" network="AV" location="--" type="BB"/>
<marker lat="53.4117" lng="-167.9095" station="OKFG" channel="BHZ" network="AV" location="--" type="BB"/>
<marker lat="53.3575" lng="-168.1599" station="OKSO" channel="BHZ" network="AV" location="--" type="BB"/>
<marker lat="62.9704" lng="-145.4676" station="PAX" channel="BHZ" network="AK" location="--" type="BB"/>
<marker lat="60.0963" lng="-140.2506" station="PIN" channel="BHZ" network="AK" location="--" type="BB"/>
<marker lat="59.6663" lng="-139.4017" station="PNL" channel="BHZ" network="AK" location="--" type="BB"/>
<marker lat="65.5167" lng="-145.5166" station="PPD" channel="BHZ" network="AK" location="--" type="BB"/>
<marker lat="62.8968" lng="-152.1870" station="PPLA" channel="BHZ" network="AK" location="--" type="BB"/>
<marker lat="60.8590" lng="-148.3316" station="PWL" channel="BHZ" network="AK" location="--" type="BB"/>
<marker lat="60.3869" lng="-144.6751" station="RAG" channel="BHZ" network="AK" location="--" type="BB"/>
<marker lat="61.0896" lng="-149.7368" station="RC01" channel="BHZ" network="AK" location="--" type="BB"/>
<marker lat="60.5919" lng="-152.6860" station="RDDF" channel="BHZ" network="AV" location="--" type="BB"/>
<marker lat="60.5911" lng="-152.8036" station="RDJH" channel="BHZ" network="AV" location="--" type="BB"/>
<marker lat="68.0547" lng="-162.9049" station="RDOG" channel="BHZ" network="AK" location="--" type="BB"/>
<marker lat="60.4542" lng="-152.7430" station="RDSO" channel="BHZ" network="AV" location="--" type="BB"/>
<marker lat="60.4876" lng="-152.8414" station="RDWB" channel="BHZ" network="AV" location="--" type="BB"/>
<marker lat="60.4199" lng="-152.7718" station="RED" channel="EHZ" network="AV" location="--" type="SP"/>
<marker lat="60.4199" lng="-152.7718" station="RED" channel="BHZ" network="AV" location="--" type="BB"/>
<marker lat="63.7407" lng="-144.8417" station="RIDG" channel="BHZ" network="AK" location="--" type="BB"/>
<marker lat="63.4061" lng="-148.8575" station="RND" channel="BHZ" network="AK" location="--" type="BB"/>
<marker lat="61.8076" lng="-148.3295" station="SAW" channel="BHZ" network="AK" location="--" type="BB"/>
<marker lat="61.8334" lng="-147.3274" station="SCM" channel="BHZ" network="AK" location="--" type="BB"/>
<marker lat="63.9769" lng="-143.9859" station="SCRK" channel="BHZ" network="AK" location="--" type="BB"/>
<marker lat="60.5346" lng="-145.2061" station="SGA" channel="BHZ" network="AK" location="--" type="BB"/>
<marker lat="56.5594" lng="-154.1842" station="SII" channel="BHZ" network="AK" location="--" type="BB"/>
<marker lat="61.9806" lng="-151.5292" station="SKN" channel="BHZ" network="AK" location="--" type="BB"/>
<marker lat="61.2597" lng="-152.3699" station="SPBG" channel="BHZ" network="AV" location="--" type="BB"/>
<marker lat="61.2919" lng="-152.0205" station="SPCG" channel="BHZ" network="AV" location="--" type="BB"/>
<marker lat="61.2250" lng="-152.1832" station="SPCN" channel="BHZ" network="AV" location="--" type="BB"/>
<marker lat="61.2661" lng="-152.1529" station="SPCP" channel="BHZ" network="AV" location="--" type="BB"/>
<marker lat="61.2009" lng="-152.2068" station="SPCR" channel="BHZ" network="AV" location="--" type="BB"/>
<marker lat="57.1776" lng="-170.2455" station="SPIA" channel="BHZ" network="AK" location="--" type="BB"/>
<marker lat="61.3333" lng="-152.6991" station="SPNN" channel="BHZ" network="AV" location="--" type="BB"/>
<marker lat="54.7727" lng="-164.1245" station="SSBA" channel="BHZ" network="AV" location="--" type="BB"/>
<marker lat="61.4640" lng="-150.7444" station="SSN" channel="BHZ" network="AK" location="--" type="BB"/>
<marker lat="60.1795" lng="-142.8371" station="SSP" channel="BHZ" network="AK" location="--" type="BB"/>
<marker lat="60.1049" lng="-149.4507" station="SWD" channel="BHZ" network="AK" location="--" type="BB"/>
<marker lat="60.7545" lng="-142.8276" station="TGL" channel="BHZ" network="AK" location="--" type="BB"/>
<marker lat="65.5606" lng="-167.9240" station="TNA" channel="BHZ" network="AK" location="--" type="BB"/>
<marker lat="62.3350" lng="-150.2440" station="TRAP" channel="EHZ" network="AK" location="--" type="SP"/>
<marker lat="63.4510" lng="-150.2872" station="TRF" channel="BHZ" network="AK" location="--" type="BB"/>
<marker lat="53.8465" lng="-166.5020" station="UNV" channel="BHZ" network="AK" location="--" type="BB"/>
<marker lat="60.4485" lng="-142.8509" station="WAX" channel="BHZ" network="AK" location="--" type="BB"/>
<marker lat="64.4720" lng="-148.0892" station="WRH" channel="BHZ" network="AK" location="--" type="BB"/>
<marker lat="60.3588" lng="-141.7490" station="YAH" channel="BHZ" network="AK" location="--" type="BB"/>
</markers>
