<?xml version="1.0" encoding="UTF-8"?>
<markers>
	<!-- created by css2volcxml from database: /avort/oprun/dbmaster/master_stations on  9/21/2011  20:27:29.458 UTC -->
<marker lat="60.0813" lng="-152.9584" station="ILI" channel="SHZ" network="AV" location="--" type="BB"/>
<marker lat="60.0813" lng="-152.9584" station="ILI" channel="SHZ" network="AV" location="--" type="BB"/>
<marker lat="60.0813" lng="-152.9584" station="ILI" channel="SHZ" network="AV" location="--" type="BB"/>
<marker lat="60.0813" lng="-152.9584" station="ILI" channel="SHZ" network="AV" location="--" type="BB"/>
<marker lat="60.0813" lng="-152.9584" station="ILI" channel="EHZ" network="AV" location="--" type="BB"/>
<marker lat="59.9576" lng="-153.0681" station="ILS" channel="SHZ" network="AV" location="--" type="BB"/>
<marker lat="59.9576" lng="-153.0681" station="ILS" channel="EHZ" network="AV" location="--" type="BB"/>
<marker lat="60.0598" lng="-153.1370" station="ILW" channel="SHZ" network="AV" location="--" type="BB"/>
<marker lat="60.0598" lng="-153.1370" station="ILW" channel="SHZ" network="AV" location="--" type="BB"/>
<marker lat="60.0598" lng="-153.1370" station="ILW" channel="EHZ" network="AV" location="--" type="BB"/>
<marker lat="60.0608" lng="-153.0625" station="INE" channel="SHZ" network="AV" location="--" type="BB"/>
<marker lat="60.0608" lng="-153.0625" station="INE" channel="EHZ" network="AV" location="--" type="BB"/>
<marker lat="60.0169" lng="-153.0163" station="IVE" channel="SHZ" network="AV" location="--" type="BB"/>
<marker lat="60.0169" lng="-153.0163" station="IVE" channel="SHZ" network="AV" location="--" type="BB"/>
<marker lat="60.0169" lng="-153.0163" station="IVE" channel="EHZ" network="AV" location="--" type="BB"/>
<marker lat="60.0092" lng="-153.0808" station="IVS" channel="SHZ" network="AV" location="--" type="BB"/>
<marker lat="60.0092" lng="-153.0808" station="IVS" channel="SHZ" network="AV" location="--" type="BB"/>
<marker lat="60.0092" lng="-153.0808" station="IVS" channel="SHZ" network="AV" location="--" type="BB"/>
<marker lat="60.0092" lng="-153.0808" station="IVS" channel="SHZ" network="AV" location="--" type="BB"/>
<marker lat="60.0092" lng="-153.0808" station="IVS" channel="EHZ" network="AV" location="--" type="BB"/>
<marker lat="59.6532" lng="-153.2299" station="OPT" channel="SHZ" network="AV" location="--" type="BB"/>
<marker lat="59.6532" lng="-153.2299" station="OPT" channel="SHZ" network="AV" location="--" type="BB"/>
<marker lat="59.6532" lng="-153.2299" station="OPT" channel="SHZ" network="AV" location="--" type="BB"/>
<marker lat="59.6532" lng="-153.2299" station="OPT" channel="EHZ" network="AV" location="--" type="BB"/>
<marker lat="60.4199" lng="-152.7718" station="RED" channel="EHZ" network="AV" location="--" type="BB"/>
<marker lat="60.4199" lng="-152.7718" station="RED" channel="BHZ" network="AV" location="--" type="SP"/>
</markers>
