<?xml version="1.0" encoding="UTF-8"?>
<markers>
	<!-- created by css2volcxml from database: /avort/oprun/dbmaster/master_stations on  9/21/2011  20:26:16.959 UTC -->
<marker lat="53.9514" lng="-166.8922" station="MCIR" channel="SHZ" network="AV" location="--" type="BB"/>
<marker lat="53.9514" lng="-166.8922" station="MCIR" channel="EHZ" network="AV" location="--" type="BB"/>
<marker lat="53.7947" lng="-166.8760" station="MGOD" channel="SHZ" network="AV" location="--" type="BB"/>
<marker lat="53.7947" lng="-166.8760" station="MGOD" channel="EHZ" network="AV" location="--" type="BB"/>
<marker lat="53.8838" lng="-166.6836" station="MNAT" channel="SHZ" network="AV" location="--" type="BB"/>
<marker lat="53.8838" lng="-166.6836" station="MNAT" channel="EHZ" network="AV" location="--" type="BB"/>
<marker lat="53.8163" lng="-166.9364" station="MSOM" channel="SHZ" network="AV" location="--" type="BB"/>
<marker lat="53.8163" lng="-166.9364" station="MSOM" channel="EHZ" network="AV" location="--" type="BB"/>
<marker lat="53.9689" lng="-166.6793" station="MTBL" channel="SHZ" network="AV" location="--" type="BB"/>
<marker lat="53.9689" lng="-166.6793" station="MTBL" channel="EHZ" network="AV" location="--" type="BB"/>
<marker lat="53.8105" lng="-166.7456" station="MREP" channel="SHZ" network="AV" location="--" type="BB"/>
<marker lat="53.8105" lng="-166.7456" station="MREP" channel="EHZ" network="AV" location="--" type="BB"/>
<marker lat="53.9155" lng="-166.7864" station="MSW" channel="EHZ" network="AV" location="--" type="BB"/>
<marker lat="53.9155" lng="-166.7864" station="MSW" channel="BHZ" network="AV" location="--" type="SP"/>
<marker lat="53.8465" lng="-166.5020" station="UNV" channel="BHZ" network="AK" location="--" type="SP"/>
<marker lat="53.8465" lng="-166.5020" station="UNV" channel="BHZ" network="AK" location="--" type="SP"/>
<marker lat="53.8465" lng="-166.5020" station="UNV" channel="BHZ" network="AK" location="--" type="SP"/>
</markers>
